{
"type": "FeatureCollection",
"crs": { "type": "name", "properties": { "name": "urn:ogc:def:crs:OGC:1.3:CRS84" } },
"features": [
{ "type": "Feature", "properties": { "Name": "Centre pablo picasso", "description": null, "timestamp": null, "begin": null, "end": null, "altitudeMode": null, "tessellate": -1, "extrude": 0, "visibility": -1, "drawOrder": null, "icon": null }, "geometry": { "type": "Point", "coordinates": [ 2.441491440596122, 48.859456886012268, 0.0 ] } },
{ "type": "Feature", "properties": { "Name": "Hotel de ville", "description": null, "timestamp": null, "begin": null, "end": null, "altitudeMode": null, "tessellate": -1, "extrude": 0, "visibility": -1, "drawOrder": null, "icon": null }, "geometry": { "type": "Point", "coordinates": [ 2.417073600000021, 48.8688256, 0.0 ] } },
{ "type": "Feature", "properties": { "Name": "Ecole maternelle Paul Langevin (refectoire)", "description": null, "timestamp": null, "begin": null, "end": null, "altitudeMode": null, "tessellate": -1, "extrude": 0, "visibility": -1, "drawOrder": null, "icon": null }, "geometry": { "type": "Point", "coordinates": [ 2.419027, 48.8628058, 0.0 ] } },
{ "type": "Feature", "properties": { "Name": "Ecole maternelle Paul Langevin (preau)", "description": null, "timestamp": null, "begin": null, "end": null, "altitudeMode": null, "tessellate": -1, "extrude": 0, "visibility": -1, "drawOrder": null, "icon": null }, "geometry": { "type": "Point", "coordinates": [ 2.419027, 48.8628058, 0.0 ] } },
{ "type": "Feature", "properties": { "Name": "Centre des questiers des Coutures", "description": null, "timestamp": null, "begin": null, "end": null, "altitudeMode": null, "tessellate": -1, "extrude": 0, "visibility": -1, "drawOrder": null, "icon": null }, "geometry": { "type": "Point", "coordinates": [ 2.417423899999989, 48.857907599999962, 0.0 ] } },
{ "type": "Feature", "properties": { "Name": "Ecole maternelle Jules Ferry", "description": null, "timestamp": null, "begin": null, "end": null, "altitudeMode": null, "tessellate": -1, "extrude": 0, "visibility": -1, "drawOrder": null, "icon": null }, "geometry": { "type": "Point", "coordinates": [ 2.418340599999977, 48.858534, 0.0 ] } },
{ "type": "Feature", "properties": { "Name": "Ecole Henri Barbusse", "description": null, "timestamp": null, "begin": null, "end": null, "altitudeMode": null, "tessellate": -1, "extrude": 0, "visibility": -1, "drawOrder": null, "icon": null }, "geometry": { "type": "Point", "coordinates": [ 2.4257146, 48.868304099999982, 0.0 ] } },
{ "type": "Feature", "properties": { "Name": "Ecole Paul Vaillant Couturier", "description": null, "timestamp": null, "begin": null, "end": null, "altitudeMode": null, "tessellate": -1, "extrude": 0, "visibility": -1, "drawOrder": null, "icon": null }, "geometry": { "type": "Point", "coordinates": [ 2.4257146, 48.868304099999982, 0.0 ] } },
{ "type": "Feature", "properties": { "Name": "Ecole Jules Verne", "description": null, "timestamp": null, "begin": null, "end": null, "altitudeMode": null, "tessellate": -1, "extrude": 0, "visibility": -1, "drawOrder": null, "icon": null }, "geometry": { "type": "Point", "coordinates": [ 2.424702, 48.8721427, 0.0 ] } },
{ "type": "Feature", "properties": { "Name": "Ecole Henri Wallon", "description": null, "timestamp": null, "begin": null, "end": null, "altitudeMode": null, "tessellate": -1, "extrude": 0, "visibility": -1, "drawOrder": null, "icon": null }, "geometry": { "type": "Point", "coordinates": [ 2.4250061, 48.871364, 0.0 ] } },
{ "type": "Feature", "properties": { "Name": "Ecole Eugénie Cotton (réfectoire)", "description": null, "timestamp": null, "begin": null, "end": null, "altitudeMode": null, "tessellate": -1, "extrude": 0, "visibility": -1, "drawOrder": null, "icon": null }, "geometry": { "type": "Point", "coordinates": [ 2.4249824, 48.874875200000027, 0.0 ] } },
{ "type": "Feature", "properties": { "Name": "Ecole PÍche díOr", "description": null, "timestamp": null, "begin": null, "end": null, "altitudeMode": null, "tessellate": -1, "extrude": 0, "visibility": -1, "drawOrder": null, "icon": null }, "geometry": { "type": "Point", "coordinates": [ 2.425977799999988, 48.872411399999983, 0.0 ] } },
{ "type": "Feature", "properties": { "Name": "Ecole Eugénie Cotton (gymnase)", "description": null, "timestamp": null, "begin": null, "end": null, "altitudeMode": null, "tessellate": -1, "extrude": 0, "visibility": -1, "drawOrder": null, "icon": null }, "geometry": { "type": "Point", "coordinates": [ 2.4249824, 48.874875200000027, 0.0 ] } },
{ "type": "Feature", "properties": { "Name": "Ecole Jean Jaurès (gymnase)", "description": null, "timestamp": null, "begin": null, "end": null, "altitudeMode": null, "tessellate": -1, "extrude": 0, "visibility": -1, "drawOrder": null, "icon": null }, "geometry": { "type": "Point", "coordinates": [ 2.431971499999985, 48.877325199999987, 0.0 ] } },
{ "type": "Feature", "properties": { "Name": "Ecole maternelle Jean Jaurés (préau)", "description": null, "timestamp": null, "begin": null, "end": null, "altitudeMode": null, "tessellate": -1, "extrude": 0, "visibility": -1, "drawOrder": null, "icon": null }, "geometry": { "type": "Point", "coordinates": [ 2.431971499999985, 48.877325199999987, 0.0 ] } },
{ "type": "Feature", "properties": { "Name": "Ecole primaire Jean Jaurés", "description": null, "timestamp": null, "begin": null, "end": null, "altitudeMode": null, "tessellate": -1, "extrude": 0, "visibility": -1, "drawOrder": null, "icon": null }, "geometry": { "type": "Point", "coordinates": [ 2.432804299999987, 48.8786357, 0.0 ] } },
{ "type": "Feature", "properties": { "Name": "Ecole Frédéric Joliot Curie", "description": null, "timestamp": null, "begin": null, "end": null, "altitudeMode": null, "tessellate": -1, "extrude": 0, "visibility": -1, "drawOrder": null, "icon": null }, "geometry": { "type": "Point", "coordinates": [ 2.418644099999989, 48.873771199999972, 0.0 ] } },
{ "type": "Feature", "properties": { "Name": "Centre Paul Coudert", "description": null, "timestamp": null, "begin": null, "end": null, "altitudeMode": null, "tessellate": -1, "extrude": 0, "visibility": -1, "drawOrder": null, "icon": null }, "geometry": { "type": "Point", "coordinates": [ 2.41472630000001, 48.870228, 0.0 ] } },
{ "type": "Feature", "properties": { "Name": "Ecole maternelle Capsulerie", "description": null, "timestamp": null, "begin": null, "end": null, "altitudeMode": null, "tessellate": -1, "extrude": 0, "visibility": -1, "drawOrder": null, "icon": null }, "geometry": { "type": "Point", "coordinates": [ 2.420617200000015, 48.862602600000017, 0.0 ] } },
{ "type": "Feature", "properties": { "Name": "Hôtel de Ville", "description": null, "timestamp": null, "begin": null, "end": null, "altitudeMode": null, "tessellate": -1, "extrude": 0, "visibility": -1, "drawOrder": null, "icon": null }, "geometry": { "type": "Point", "coordinates": [ 2.4423265, 48.862544799999988, 0.0 ] } },
{ "type": "Feature", "properties": { "Name": "Bibliotheque Robert Desnos", "description": null, "timestamp": null, "begin": null, "end": null, "altitudeMode": null, "tessellate": -1, "extrude": 0, "visibility": -1, "drawOrder": null, "icon": null }, "geometry": { "type": "Point", "coordinates": [ 2.440635899999974, 48.8615395, 0.0 ] } },
{ "type": "Feature", "properties": { "Name": "Centre Jean Lurçat", "description": null, "timestamp": null, "begin": null, "end": null, "altitudeMode": null, "tessellate": -1, "extrude": 0, "visibility": -1, "drawOrder": null, "icon": null }, "geometry": { "type": "Point", "coordinates": [ 2.433336599999985, 48.8579815, 0.0 ] } },
{ "type": "Feature", "properties": { "Name": "Ecole élémentaire Paul Bert", "description": null, "timestamp": null, "begin": null, "end": null, "altitudeMode": null, "tessellate": -1, "extrude": 0, "visibility": -1, "drawOrder": null, "icon": null }, "geometry": { "type": "Point", "coordinates": [ 2.419439600000022, 48.85377380000002, 0.0 ] } },
{ "type": "Feature", "properties": { "Name": "Ecole élémentaire Voltaire", "description": null, "timestamp": null, "begin": null, "end": null, "altitudeMode": null, "tessellate": -1, "extrude": 0, "visibility": -1, "drawOrder": null, "icon": null }, "geometry": { "type": "Point", "coordinates": [ 2.4226082, 48.854653, 0.0 ] } },
{ "type": "Feature", "properties": { "Name": "Ecole élémentaire Françoise Héritier", "description": null, "timestamp": null, "begin": null, "end": null, "altitudeMode": null, "tessellate": -1, "extrude": 0, "visibility": -1, "drawOrder": null, "icon": null }, "geometry": { "type": "Point", "coordinates": [ 2.4229498, 48.8540427, 0.0 ] } },
{ "type": "Feature", "properties": { "Name": "Ecole maternelle Marceau", "description": null, "timestamp": null, "begin": null, "end": null, "altitudeMode": null, "tessellate": -1, "extrude": 0, "visibility": -1, "drawOrder": null, "icon": null }, "geometry": { "type": "Point", "coordinates": [ 2.426258899999985, 48.8546425, 0.0 ] } },
{ "type": "Feature", "properties": { "Name": "Antenne de secteur", "description": null, "timestamp": null, "begin": null, "end": null, "altitudeMode": null, "tessellate": -1, "extrude": 0, "visibility": -1, "drawOrder": null, "icon": null }, "geometry": { "type": "Point", "coordinates": [ 2.424647899999983, 48.8533659, 0.0 ] } },
{ "type": "Feature", "properties": { "Name": "Ecole maternelle Louis Aragon", "description": null, "timestamp": null, "begin": null, "end": null, "altitudeMode": null, "tessellate": -1, "extrude": 0, "visibility": -1, "drawOrder": null, "icon": null }, "geometry": { "type": "Point", "coordinates": [ 2.434249499999979, 48.8555603, 0.0 ] } },
{ "type": "Feature", "properties": { "Name": "Ecole élémentaire Marcelin Berthelot", "description": null, "timestamp": null, "begin": null, "end": null, "altitudeMode": null, "tessellate": -1, "extrude": 0, "visibility": -1, "drawOrder": null, "icon": null }, "geometry": { "type": "Point", "coordinates": [ 2.438654399999973, 48.8559145, 0.0 ] } },
{ "type": "Feature", "properties": { "Name": "Ecole maternelle Marcelin Berthelot", "description": null, "timestamp": null, "begin": null, "end": null, "altitudeMode": null, "tessellate": -1, "extrude": 0, "visibility": -1, "drawOrder": null, "icon": null }, "geometry": { "type": "Point", "coordinates": [ 2.4389175, 48.855812099999973, 0.0 ] } },
{ "type": "Feature", "properties": { "Name": "Centre Mendès France", "description": null, "timestamp": null, "begin": null, "end": null, "altitudeMode": null, "tessellate": -1, "extrude": 0, "visibility": -1, "drawOrder": null, "icon": null }, "geometry": { "type": "Point", "coordinates": [ 2.44292, 48.8529084, 0.0 ] } },
{ "type": "Feature", "properties": { "Name": "Centre Pablo Picasso", "description": null, "timestamp": null, "begin": null, "end": null, "altitudeMode": null, "tessellate": -1, "extrude": 0, "visibility": -1, "drawOrder": null, "icon": null }, "geometry": { "type": "Point", "coordinates": [ 0.0, 0.0, 0.0 ] } },
{ "type": "Feature", "properties": { "Name": "Salle Franklin", "description": null, "timestamp": null, "begin": null, "end": null, "altitudeMode": null, "tessellate": -1, "extrude": 0, "visibility": -1, "drawOrder": null, "icon": null }, "geometry": { "type": "Point", "coordinates": [ 2.444624099999984, 48.863641100000017, 0.0 ] } },
{ "type": "Feature", "properties": { "Name": "Antenne Diabolo", "description": null, "timestamp": null, "begin": null, "end": null, "altitudeMode": null, "tessellate": -1, "extrude": 0, "visibility": -1, "drawOrder": null, "icon": null }, "geometry": { "type": "Point", "coordinates": [ 2.4378828, 48.855373500000013, 0.0 ] } },
{ "type": "Feature", "properties": { "Name": "Centre de loisirs Garibaldi", "description": null, "timestamp": null, "begin": null, "end": null, "altitudeMode": null, "tessellate": -1, "extrude": 0, "visibility": -1, "drawOrder": null, "icon": null }, "geometry": { "type": "Point", "coordinates": [ 2.428778900000017, 48.8560665, 0.0 ] } },
{ "type": "Feature", "properties": { "Name": "Ecole Louise Michel", "description": null, "timestamp": null, "begin": null, "end": null, "altitudeMode": null, "tessellate": -1, "extrude": 0, "visibility": -1, "drawOrder": null, "icon": null }, "geometry": { "type": "Point", "coordinates": [ 2.4451309, 48.8545339, 0.0 ] } },
{ "type": "Feature", "properties": { "Name": "Ecole maternelle Jean Moulin", "description": null, "timestamp": null, "begin": null, "end": null, "altitudeMode": null, "tessellate": -1, "extrude": 0, "visibility": -1, "drawOrder": null, "icon": null }, "geometry": { "type": "Point", "coordinates": [ 2.447970599999976, 48.857965, 0.0 ] } },
{ "type": "Feature", "properties": { "Name": "Ecole élémentaire Anatole France", "description": null, "timestamp": null, "begin": null, "end": null, "altitudeMode": null, "tessellate": -1, "extrude": 0, "visibility": -1, "drawOrder": null, "icon": null }, "geometry": { "type": "Point", "coordinates": [ 2.4597945, 48.860725399999978, 0.0 ] } },
{ "type": "Feature", "properties": { "Name": "Ecole élémentaire Daniel Renoult", "description": null, "timestamp": null, "begin": null, "end": null, "altitudeMode": null, "tessellate": -1, "extrude": 0, "visibility": -1, "drawOrder": null, "icon": null }, "geometry": { "type": "Point", "coordinates": [ 2.472642699999987, 48.862368300000021, 0.0 ] } },
{ "type": "Feature", "properties": { "Name": "Ecole élémentaire Paul Lafargue", "description": null, "timestamp": null, "begin": null, "end": null, "altitudeMode": null, "tessellate": -1, "extrude": 0, "visibility": -1, "drawOrder": null, "icon": null }, "geometry": { "type": "Point", "coordinates": [ 2.47700640000001, 48.862008800000012, 0.0 ] } },
{ "type": "Feature", "properties": { "Name": "Ecole élémentaire Romain Rolland", "description": null, "timestamp": null, "begin": null, "end": null, "altitudeMode": null, "tessellate": -1, "extrude": 0, "visibility": -1, "drawOrder": null, "icon": null }, "geometry": { "type": "Point", "coordinates": [ 2.4754913, 48.866346799999988, 0.0 ] } },
{ "type": "Feature", "properties": { "Name": "Ecole élémentaire Nanteuil", "description": null, "timestamp": null, "begin": null, "end": null, "altitudeMode": null, "tessellate": -1, "extrude": 0, "visibility": -1, "drawOrder": null, "icon": null }, "geometry": { "type": "Point", "coordinates": [ 2.463409, 48.873614399999987, 0.0 ] } },
{ "type": "Feature", "properties": { "Name": "Ecole élémentaire Nanteuil", "description": null, "timestamp": null, "begin": null, "end": null, "altitudeMode": null, "tessellate": -1, "extrude": 0, "visibility": -1, "drawOrder": null, "icon": null }, "geometry": { "type": "Point", "coordinates": [ 2.4644434, 48.873787199999981, 0.0 ] } },
{ "type": "Feature", "properties": { "Name": "Ecole élémentaire Danton", "description": null, "timestamp": null, "begin": null, "end": null, "altitudeMode": null, "tessellate": -1, "extrude": 0, "visibility": -1, "drawOrder": null, "icon": null }, "geometry": { "type": "Point", "coordinates": [ 2.454441300000032, 48.865716, 0.0 ] } },
{ "type": "Feature", "properties": { "Name": "Ecole maternelle Grands PÍchers", "description": null, "timestamp": null, "begin": null, "end": null, "altitudeMode": null, "tessellate": -1, "extrude": 0, "visibility": -1, "drawOrder": null, "icon": null }, "geometry": { "type": "Point", "coordinates": [ 2.464321500000017, 48.8587646, 0.0 ] } },
{ "type": "Feature", "properties": { "Name": "Salle polyvalente Résistence Ecole Stéphane Hessel", "description": null, "timestamp": null, "begin": null, "end": null, "altitudeMode": null, "tessellate": -1, "extrude": 0, "visibility": -1, "drawOrder": null, "icon": null }, "geometry": { "type": "Point", "coordinates": [ 2.4374185, 48.860780199999986, 0.0 ] } },
{ "type": "Feature", "properties": { "Name": "Ecole élémentaire Jules Ferry", "description": null, "timestamp": null, "begin": null, "end": null, "altitudeMode": null, "tessellate": -1, "extrude": 0, "visibility": -1, "drawOrder": null, "icon": null }, "geometry": { "type": "Point", "coordinates": [ 2.430835800000022, 48.8602616, 0.0 ] } },
{ "type": "Feature", "properties": { "Name": "Ecole élémentaire Jules Ferry", "description": null, "timestamp": null, "begin": null, "end": null, "altitudeMode": null, "tessellate": -1, "extrude": 0, "visibility": -1, "drawOrder": null, "icon": null }, "geometry": { "type": "Point", "coordinates": [ 2.4310032, 48.8592717, 0.0 ] } },
{ "type": "Feature", "properties": { "Name": "Ecole élémentaire Joliot Curie", "description": null, "timestamp": null, "begin": null, "end": null, "altitudeMode": null, "tessellate": -1, "extrude": 0, "visibility": -1, "drawOrder": null, "icon": null }, "geometry": { "type": "Point", "coordinates": [ 2.4315201, 48.86745040000001, 0.0 ] } },
{ "type": "Feature", "properties": { "Name": "Ecole maternelle Joliot Curie", "description": null, "timestamp": null, "begin": null, "end": null, "altitudeMode": null, "tessellate": -1, "extrude": 0, "visibility": -1, "drawOrder": null, "icon": null }, "geometry": { "type": "Point", "coordinates": [ 2.4315201, 48.86745040000001, 0.0 ] } },
{ "type": "Feature", "properties": { "Name": "Ecole élémentaire Jean Jaurès", "description": null, "timestamp": null, "begin": null, "end": null, "altitudeMode": null, "tessellate": -1, "extrude": 0, "visibility": -1, "drawOrder": null, "icon": null }, "geometry": { "type": "Point", "coordinates": [ 2.434102200000021, 48.8687266, 0.0 ] } },
{ "type": "Feature", "properties": { "Name": "Ecole élémentaire Estienne d'Orves", "description": null, "timestamp": null, "begin": null, "end": null, "altitudeMode": null, "tessellate": -1, "extrude": 0, "visibility": -1, "drawOrder": null, "icon": null }, "geometry": { "type": "Point", "coordinates": [ 2.402619600000016, 48.885725599999986, 0.0 ] } },
{ "type": "Feature", "properties": { "Name": "Ecole maternelle Danielle Casanova", "description": null, "timestamp": null, "begin": null, "end": null, "altitudeMode": null, "tessellate": -1, "extrude": 0, "visibility": -1, "drawOrder": null, "icon": null }, "geometry": { "type": "Point", "coordinates": [ 2.454835, 48.8747172, 0.0 ] } },
{ "type": "Feature", "properties": { "Name": "Ecole maternelle Danielle Casanova", "description": null, "timestamp": null, "begin": null, "end": null, "altitudeMode": null, "tessellate": -1, "extrude": 0, "visibility": -1, "drawOrder": null, "icon": null }, "geometry": { "type": "Point", "coordinates": [ 2.454065799999978, 48.876108299999977, 0.0 ] } },
{ "type": "Feature", "properties": { "Name": "Gymnase Boissière", "description": null, "timestamp": null, "begin": null, "end": null, "altitudeMode": null, "tessellate": -1, "extrude": 0, "visibility": -1, "drawOrder": null, "icon": null }, "geometry": { "type": "Point", "coordinates": [ 2.454831, 48.874711300000023, 0.0 ] } },
{ "type": "Feature", "properties": { "Name": "Ecole maternelle", "description": null, "timestamp": null, "begin": null, "end": null, "altitudeMode": null, "tessellate": -1, "extrude": 0, "visibility": -1, "drawOrder": null, "icon": null }, "geometry": { "type": "Point", "coordinates": [ 2.4547471, 48.8711464, 0.0 ] } },
{ "type": "Feature", "properties": { "Name": "Centre de loisirs Jules Verne", "description": null, "timestamp": null, "begin": null, "end": null, "altitudeMode": null, "tessellate": -1, "extrude": 0, "visibility": -1, "drawOrder": null, "icon": null }, "geometry": { "type": "Point", "coordinates": [ 2.461690299999977, 48.8730702, 0.0 ] } }
]
}
