{
	"type": "FeatureCollection",
	"features": [
		{
			"type": "Feature",
			"geometry": {
				"type": "Point",
				"coordinates": [
					2.293346727960391,
					48.867236309458114
				]
			},
			"properties": {
				"Nom": "INSTITUT DE L'ASSOMPTION",
				"objectid": 612,
				"Adresse": "8 RUE DE L AMIRAL D ESTAING",
				"geo_point_2d": [
					48.867236309458114,
					2.293346727960391
				],
				"cp": "75016",
				"num_bv": "65",
				"id_bv": "16-65"
			}
		},
		{
			"type": "Feature",
			"geometry": {
				"type": "Point",
				"coordinates": [
					2.280760034954807,
					48.86883244068675
				]
			},
			"properties": {
				"Nom": "ECOLE ELEMENTAIRE",
				"objectid": 605,
				"Adresse": "3 IMPASSE DES BELLES FEUILLES",
				"geo_point_2d": [
					48.86883244068675,
					2.280760034954807
				],
				"cp": "75016",
				"num_bv": "58",
				"id_bv": "16-58"
			}
		},
		{
			"type": "Feature",
			"geometry": {
				"type": "Point",
				"coordinates": [
					2.27210280990352,
					48.86751950436509
				]
			},
			"properties": {
				"Nom": "GYMNASE HENRY DE MONTHERLANT",
				"objectid": 602,
				"Adresse": "32 BOULEVARD LANNES",
				"geo_point_2d": [
					48.86751950436509,
					2.27210280990352
				],
				"cp": "75016",
				"num_bv": "55",
				"id_bv": "16-55"
			}
		},
		{
			"type": "Feature",
			"geometry": {
				"type": "Point",
				"coordinates": [
					2.287584927820538,
					48.866137322416215
				]
			},
			"properties": {
				"Nom": "ECOLE ELEMENTAIRE",
				"objectid": 610,
				"Adresse": "15 bis RUE SAINT DIDIER",
				"geo_point_2d": [
					48.866137322416215,
					2.287584927820538
				],
				"cp": "75016",
				"num_bv": "63",
				"id_bv": "16-63"
			}
		},
		{
			"type": "Feature",
			"geometry": {
				"type": "Point",
				"coordinates": [
					2.32209375678995,
					48.884340831391285
				]
			},
			"properties": {
				"Nom": "MAIRIE D'ARRONDISSEMENT",
				"objectid": 617,
				"Adresse": "18 RUE DES BATIGNOLLES",
				"geo_point_2d": [
					48.884340831391285,
					2.32209375678995
				],
				"cp": "75017",
				"num_bv": "2",
				"id_bv": "17-2"
			}
		},
		{
			"type": "Feature",
			"geometry": {
				"type": "Point",
				"coordinates": [
					2.30374937782114,
					48.88075294826639
				]
			},
			"properties": {
				"Nom": "ECOLE HOTELIERE JEAN DROUANT",
				"objectid": 658,
				"Adresse": "20 RUE MEDERIC",
				"geo_point_2d": [
					48.88075294826639,
					2.30374937782114
				],
				"cp": "75017",
				"num_bv": "43",
				"id_bv": "17-43"
			}
		},
		{
			"type": "Feature",
			"geometry": {
				"type": "Point",
				"coordinates": [
					2.291931610891922,
					48.867418913612084
				]
			},
			"properties": {
				"Nom": "ECOLE ELEMENTAIRE",
				"objectid": 608,
				"Adresse": "21 RUE AMIRAL HAMELIN",
				"geo_point_2d": [
					48.867418913612084,
					2.291931610891922
				],
				"cp": "75016",
				"num_bv": "61",
				"id_bv": "16-61"
			}
		},
		{
			"type": "Feature",
			"geometry": {
				"type": "Point",
				"coordinates": [
					2.320797460528211,
					48.88295338754041
				]
			},
			"properties": {
				"Nom": "ECOLE ELEMENTAIRE",
				"objectid": 621,
				"Adresse": "10 RUE BOURSAULT",
				"geo_point_2d": [
					48.88295338754041,
					2.320797460528211
				],
				"cp": "75017",
				"num_bv": "6",
				"id_bv": "17-6"
			}
		},
		{
			"type": "Feature",
			"geometry": {
				"type": "Point",
				"coordinates": [
					2.322540242567856,
					48.8849302531143
				]
			},
			"properties": {
				"Nom": "ECOLE ELEMENTAIRE",
				"objectid": 619,
				"Adresse": "15 RUE TRUFFAUT",
				"geo_point_2d": [
					48.8849302531143,
					2.322540242567856
				],
				"cp": "75017",
				"num_bv": "4",
				"id_bv": "17-4"
			}
		},
		{
			"type": "Feature",
			"geometry": {
				"type": "Point",
				"coordinates": [
					2.320769503704259,
					48.888851082142416
				]
			},
			"properties": {
				"Nom": "ECOLE ELEMENTAIRE",
				"objectid": 623,
				"Adresse": "8 RUE LECOMTE",
				"geo_point_2d": [
					48.888851082142416,
					2.320769503704259
				],
				"cp": "75017",
				"num_bv": "8",
				"id_bv": "17-8"
			}
		},
		{
			"type": "Feature",
			"geometry": {
				"type": "Point",
				"coordinates": [
					2.401674771825138,
					48.87347497323394
				]
			},
			"properties": {
				"Nom": "MJC \"LES HAUTS DE BELLEVILLE\"",
				"objectid": 839,
				"Adresse": "43 RUE DU BORREGO",
				"geo_point_2d": [
					48.87347497323394,
					2.401674771825138
				],
				"cp": "75020",
				"num_bv": "19",
				"id_bv": "20-19"
			}
		},
		{
			"type": "Feature",
			"geometry": {
				"type": "Point",
				"coordinates": [
					2.394524939038747,
					48.8787419839548
				]
			},
			"properties": {
				"Nom": "ECOLE ELEMENTAIRE B",
				"objectid": 785,
				"Adresse": "16 RUE EUGENIE COTTON",
				"geo_point_2d": [
					48.8787419839548,
					2.394524939038747
				],
				"cp": "75019",
				"num_bv": "35",
				"id_bv": "19-35"
			}
		},
		{
			"type": "Feature",
			"geometry": {
				"type": "Point",
				"coordinates": [
					2.399105786469913,
					48.873410671920055
				]
			},
			"properties": {
				"Nom": "ECOLE ELEMENTAIRE",
				"objectid": 838,
				"Adresse": "29 RUE DU TELEGRAPHE",
				"geo_point_2d": [
					48.873410671920055,
					2.399105786469913
				],
				"cp": "75020",
				"num_bv": "18",
				"id_bv": "20-18"
			}
		},
		{
			"type": "Feature",
			"geometry": {
				"type": "Point",
				"coordinates": [
					2.376059327607306,
					48.89500810814713
				]
			},
			"properties": {
				"Nom": "ECOLE ELEMENTAIRE A",
				"objectid": 791,
				"Adresse": "15 RUE COLETTE MAGNY",
				"geo_point_2d": [
					48.89500810814713,
					2.376059327607306
				],
				"cp": "75019",
				"num_bv": "41",
				"id_bv": "19-41"
			}
		},
		{
			"type": "Feature",
			"geometry": {
				"type": "Point",
				"coordinates": [
					2.379603769415929,
					48.88590939471216
				]
			},
			"properties": {
				"Nom": "ECOLE ELEMENTAIRE B",
				"objectid": 809,
				"Adresse": "9 RUE PIERRE GIRARD",
				"geo_point_2d": [
					48.88590939471216,
					2.379603769415929
				],
				"cp": "75019",
				"num_bv": "59",
				"id_bv": "19-59"
			}
		},
		{
			"type": "Feature",
			"geometry": {
				"type": "Point",
				"coordinates": [
					2.369838283147698,
					48.89187141561735
				]
			},
			"properties": {
				"Nom": "ECOLE MATERNELLE",
				"objectid": 803,
				"Adresse": "132 RUE D AUBERVILLIERS",
				"geo_point_2d": [
					48.89187141561735,
					2.369838283147698
				],
				"cp": "75019",
				"num_bv": "53",
				"id_bv": "19-53"
			}
		},
		{
			"type": "Feature",
			"geometry": {
				"type": "Point",
				"coordinates": [
					2.394262605088934,
					48.87300073523786
				]
			},
			"properties": {
				"Nom": "ECOLE ELEMENTAIRE",
				"objectid": 834,
				"Adresse": "24 RUE OLIVIER METRA",
				"geo_point_2d": [
					48.87300073523786,
					2.394262605088934
				],
				"cp": "75020",
				"num_bv": "14",
				"id_bv": "20-14"
			}
		},
		{
			"type": "Feature",
			"geometry": {
				"type": "Point",
				"coordinates": [
					2.382861775847236,
					48.89213866689789
				]
			},
			"properties": {
				"Nom": "ECOLE ELEMENTAIRE B",
				"objectid": 798,
				"Adresse": "7 RUE BARBANEGRE",
				"geo_point_2d": [
					48.89213866689789,
					2.382861775847236
				],
				"cp": "75019",
				"num_bv": "48",
				"id_bv": "19-48"
			}
		},
		{
			"type": "Feature",
			"geometry": {
				"type": "Point",
				"coordinates": [
					2.379257311741233,
					48.88604531263782
				]
			},
			"properties": {
				"Nom": "ECOLE ELEMENTAIRE A",
				"objectid": 810,
				"Adresse": "9 RUE TANDOU",
				"geo_point_2d": [
					48.88604531263782,
					2.379257311741233
				],
				"cp": "75019",
				"num_bv": "60",
				"id_bv": "19-60"
			}
		},
		{
			"type": "Feature",
			"geometry": {
				"type": "Point",
				"coordinates": [
					2.384822372091333,
					48.87222675618306
				]
			},
			"properties": {
				"Nom": "ECOLE MATERNELLE",
				"objectid": 831,
				"Adresse": "36 RUE PIAT",
				"geo_point_2d": [
					48.87222675618306,
					2.384822372091333
				],
				"cp": "75020",
				"num_bv": "11",
				"id_bv": "20-11"
			}
		},
		{
			"type": "Feature",
			"geometry": {
				"type": "Point",
				"coordinates": [
					2.254942342930245,
					48.84197468693989
				]
			},
			"properties": {
				"Nom": "LYCEE CLAUDE BERNARD",
				"objectid": 595,
				"Adresse": "1 AVENUE DU PARC DES PRINCES",
				"geo_point_2d": [
					48.84197468693989,
					2.254942342930245
				],
				"cp": "75016",
				"num_bv": "48",
				"id_bv": "16-48"
			}
		},
		{
			"type": "Feature",
			"geometry": {
				"type": "Point",
				"coordinates": [
					2.27210280990352,
					48.86751950436509
				]
			},
			"properties": {
				"Nom": "GYMNASE HENRY DE MONTHERLANT",
				"objectid": 601,
				"Adresse": "32 BOULEVARD LANNES",
				"geo_point_2d": [
					48.86751950436509,
					2.27210280990352
				],
				"cp": "75016",
				"num_bv": "54",
				"id_bv": "16-54"
			}
		},
		{
			"type": "Feature",
			"geometry": {
				"type": "Point",
				"coordinates": [
					2.279850724798701,
					48.85502032446152
				]
			},
			"properties": {
				"Nom": "COLLEGE SAINT JEAN DE PASSY",
				"objectid": 567,
				"Adresse": "62 RUE RAYNOUARD",
				"geo_point_2d": [
					48.85502032446152,
					2.279850724798701
				],
				"cp": "75016",
				"num_bv": "20",
				"id_bv": "16-20"
			}
		},
		{
			"type": "Feature",
			"geometry": {
				"type": "Point",
				"coordinates": [
					2.279983907232503,
					48.864270613845726
				]
			},
			"properties": {
				"Nom": "PETIT LYCEE JANSON DE SAILLY",
				"objectid": 599,
				"Adresse": "24 RUE DECAMPS",
				"geo_point_2d": [
					48.864270613845726,
					2.279983907232503
				],
				"cp": "75016",
				"num_bv": "52",
				"id_bv": "16-52"
			}
		},
		{
			"type": "Feature",
			"geometry": {
				"type": "Point",
				"coordinates": [
					2.263847251203376,
					48.8399034396377
				]
			},
			"properties": {
				"Nom": "LYCEE RENE CASSIN",
				"objectid": 588,
				"Adresse": "185 AVENUE DE VERSAILLES",
				"geo_point_2d": [
					48.8399034396377,
					2.263847251203376
				],
				"cp": "75016",
				"num_bv": "41",
				"id_bv": "16-41"
			}
		},
		{
			"type": "Feature",
			"geometry": {
				"type": "Point",
				"coordinates": [
					2.265105060618937,
					48.83895378132825
				]
			},
			"properties": {
				"Nom": "ECOLE ELEMENTAIRE",
				"objectid": 594,
				"Adresse": "162 BOULEVARD MURAT",
				"geo_point_2d": [
					48.83895378132825,
					2.265105060618937
				],
				"cp": "75016",
				"num_bv": "47",
				"id_bv": "16-47"
			}
		},
		{
			"type": "Feature",
			"geometry": {
				"type": "Point",
				"coordinates": [
					2.263046864139128,
					48.84271014740742
				]
			},
			"properties": {
				"Nom": "ECOLE ELEMENTAIRE",
				"objectid": 585,
				"Adresse": "63 RUE BOILEAU",
				"geo_point_2d": [
					48.84271014740742,
					2.263046864139128
				],
				"cp": "75016",
				"num_bv": "38",
				"id_bv": "16-38"
			}
		},
		{
			"type": "Feature",
			"geometry": {
				"type": "Point",
				"coordinates": [
					2.256008884647321,
					48.84436893180052
				]
			},
			"properties": {
				"Nom": "LYCEE LA FONTAINE",
				"objectid": 572,
				"Adresse": "8 RUE MERYON",
				"geo_point_2d": [
					48.84436893180052,
					2.256008884647321
				],
				"cp": "75016",
				"num_bv": "25",
				"id_bv": "16-25"
			}
		},
		{
			"type": "Feature",
			"geometry": {
				"type": "Point",
				"coordinates": [
					2.256008884647321,
					48.84436893180052
				]
			},
			"properties": {
				"Nom": "LYCEE LA FONTAINE",
				"objectid": 573,
				"Adresse": "8 RUE MERYON",
				"geo_point_2d": [
					48.84436893180052,
					2.256008884647321
				],
				"cp": "75016",
				"num_bv": "26",
				"id_bv": "16-26"
			}
		},
		{
			"type": "Feature",
			"geometry": {
				"type": "Point",
				"coordinates": [
					2.276148555118309,
					48.85138249894853
				]
			},
			"properties": {
				"Nom": "ECOLE ELEMENTAIRE",
				"objectid": 568,
				"Adresse": "18 RUE GROS",
				"geo_point_2d": [
					48.85138249894853,
					2.276148555118309
				],
				"cp": "75016",
				"num_bv": "21",
				"id_bv": "16-21"
			}
		},
		{
			"type": "Feature",
			"geometry": {
				"type": "Point",
				"coordinates": [
					2.374187399489408,
					48.87983802127309
				]
			},
			"properties": {
				"Nom": "ECOLE ELEMENTAIRE B",
				"objectid": 757,
				"Adresse": "119 AVENUE SIMON BOLIVAR",
				"geo_point_2d": [
					48.87983802127309,
					2.374187399489408
				],
				"cp": "75019",
				"num_bv": "7",
				"id_bv": "19-7"
			}
		},
		{
			"type": "Feature",
			"geometry": {
				"type": "Point",
				"coordinates": [
					2.390464627821431,
					48.880405409154164
				]
			},
			"properties": {
				"Nom": "ECOLE MATERNELLE",
				"objectid": 780,
				"Adresse": "9 RUE DU GENERAL BRUNET",
				"geo_point_2d": [
					48.880405409154164,
					2.390464627821431
				],
				"cp": "75019",
				"num_bv": "30",
				"id_bv": "19-30"
			}
		},
		{
			"type": "Feature",
			"geometry": {
				"type": "Point",
				"coordinates": [
					2.362632093354557,
					48.890753011055075
				]
			},
			"properties": {
				"Nom": "ECOLE ELEMENTAIRE",
				"objectid": 744,
				"Adresse": "2 RUE DE LA GUADELOUPE",
				"geo_point_2d": [
					48.890753011055075,
					2.362632093354557
				],
				"cp": "75018",
				"num_bv": "62",
				"id_bv": "18-62"
			}
		},
		{
			"type": "Feature",
			"geometry": {
				"type": "Point",
				"coordinates": [
					2.377275255466353,
					48.87635949199671
				]
			},
			"properties": {
				"Nom": "ECOLE ELEMENTAIRE",
				"objectid": 760,
				"Adresse": "67 AVENUE SIMON BOLIVAR",
				"geo_point_2d": [
					48.87635949199671,
					2.377275255466353
				],
				"cp": "75019",
				"num_bv": "10",
				"id_bv": "19-10"
			}
		},
		{
			"type": "Feature",
			"geometry": {
				"type": "Point",
				"coordinates": [
					2.385349729698777,
					48.87749339806103
				]
			},
			"properties": {
				"Nom": "COLLEGE CLAUDE CHAPPE",
				"objectid": 767,
				"Adresse": "9 RUE DES ALOUETTES",
				"geo_point_2d": [
					48.87749339806103,
					2.385349729698777
				],
				"cp": "75019",
				"num_bv": "17",
				"id_bv": "19-17"
			}
		},
		{
			"type": "Feature",
			"geometry": {
				"type": "Point",
				"coordinates": [
					2.394555612426077,
					48.88370728018692
				]
			},
			"properties": {
				"Nom": "ECOLE MATERNELLE",
				"objectid": 770,
				"Adresse": "29 RUE DE LA PREVOYANCE",
				"geo_point_2d": [
					48.88370728018692,
					2.394555612426077
				],
				"cp": "75019",
				"num_bv": "20",
				"id_bv": "19-20"
			}
		},
		{
			"type": "Feature",
			"geometry": {
				"type": "Point",
				"coordinates": [
					2.394524939038747,
					48.8787419839548
				]
			},
			"properties": {
				"Nom": "ECOLE ELEMENTAIRE B",
				"objectid": 784,
				"Adresse": "16 RUE EUGENIE COTTON",
				"geo_point_2d": [
					48.8787419839548,
					2.394524939038747
				],
				"cp": "75019",
				"num_bv": "34",
				"id_bv": "19-34"
			}
		},
		{
			"type": "Feature",
			"geometry": {
				"type": "Point",
				"coordinates": [
					2.388022518795923,
					48.88728920520045
				]
			},
			"properties": {
				"Nom": "ECOLE ELEMENTAIRE",
				"objectid": 777,
				"Adresse": "160 AVENUE JEAN JAURES",
				"geo_point_2d": [
					48.88728920520045,
					2.388022518795923
				],
				"cp": "75019",
				"num_bv": "27",
				"id_bv": "19-27"
			}
		},
		{
			"type": "Feature",
			"geometry": {
				"type": "Point",
				"coordinates": [
					2.3738821869576032,
					48.880353944905195
				]
			},
			"properties": {
				"Nom": "ECOLE MATERNELLE",
				"objectid": 756,
				"Adresse": "8 RUE SADI LECOINTE",
				"geo_point_2d": [
					48.880353944905195,
					2.3738821869576032
				],
				"cp": "75019",
				"num_bv": "6",
				"id_bv": "19-6"
			}
		},
		{
			"type": "Feature",
			"geometry": {
				"type": "Point",
				"coordinates": [
					2.390330208603971,
					48.88459275395275
				]
			},
			"properties": {
				"Nom": "ECOLE ELEMENTAIRE",
				"objectid": 774,
				"Adresse": "4 RUE GOUBET",
				"geo_point_2d": [
					48.88459275395275,
					2.390330208603971
				],
				"cp": "75019",
				"num_bv": "24",
				"id_bv": "19-24"
			}
		},
		{
			"type": "Feature",
			"geometry": {
				"type": "Point",
				"coordinates": [
					2.328145776341931,
					48.88688946236731
				]
			},
			"properties": {
				"Nom": "LYCEE TECHNIQUE AUGUSTE RENOIR",
				"objectid": 712,
				"Adresse": "24 RUE GANNERON",
				"geo_point_2d": [
					48.88688946236731,
					2.328145776341931
				],
				"cp": "75018",
				"num_bv": "30",
				"id_bv": "18-30"
			}
		},
		{
			"type": "Feature",
			"geometry": {
				"type": "Point",
				"coordinates": [
					2.337886865217722,
					48.88904071290512
				]
			},
			"properties": {
				"Nom": "ECOLE MATERNELLE",
				"objectid": 707,
				"Adresse": "3 PLACE CONSTANTIN PECQUEUR",
				"geo_point_2d": [
					48.88904071290512,
					2.337886865217722
				],
				"cp": "75018",
				"num_bv": "25",
				"id_bv": "18-25"
			}
		},
		{
			"type": "Feature",
			"geometry": {
				"type": "Point",
				"coordinates": [
					2.340316327408089,
					48.89631476048435
				]
			},
			"properties": {
				"Nom": "ECOLE ELEMENTAIRE",
				"objectid": 730,
				"Adresse": "7 RUE GUSTAVE ROUANET",
				"geo_point_2d": [
					48.89631476048435,
					2.340316327408089
				],
				"cp": "75018",
				"num_bv": "48",
				"id_bv": "18-48"
			}
		},
		{
			"type": "Feature",
			"geometry": {
				"type": "Point",
				"coordinates": [
					2.331824533533235,
					48.89512422234611
				]
			},
			"properties": {
				"Nom": "ECOLE ELEMENTAIRE",
				"objectid": 725,
				"Adresse": "44 RUE VAUVENARGUES",
				"geo_point_2d": [
					48.89512422234611,
					2.331824533533235
				],
				"cp": "75018",
				"num_bv": "43",
				"id_bv": "18-43"
			}
		},
		{
			"type": "Feature",
			"geometry": {
				"type": "Point",
				"coordinates": [
					2.329820197913042,
					48.89161763130857
				]
			},
			"properties": {
				"Nom": "COLLEGE ANTOINE COYSEVOX",
				"objectid": 714,
				"Adresse": "16 RUE COYSEVOX",
				"geo_point_2d": [
					48.89161763130857,
					2.329820197913042
				],
				"cp": "75018",
				"num_bv": "32",
				"id_bv": "18-32"
			}
		},
		{
			"type": "Feature",
			"geometry": {
				"type": "Point",
				"coordinates": [
					2.352728697164876,
					48.88968435381306
				]
			},
			"properties": {
				"Nom": "ECOLE ELEMENTAIRE",
				"objectid": 735,
				"Adresse": "5 RUE PIERRE BUDIN",
				"geo_point_2d": [
					48.88968435381306,
					2.352728697164876
				],
				"cp": "75018",
				"num_bv": "53",
				"id_bv": "18-53"
			}
		},
		{
			"type": "Feature",
			"geometry": {
				"type": "Point",
				"coordinates": [
					2.358735956353919,
					48.88887204874945
				]
			},
			"properties": {
				"Nom": "ECOLE ELEMENTAIRE",
				"objectid": 734,
				"Adresse": "7 RUE DOUDEAUVILLE",
				"geo_point_2d": [
					48.88887204874945,
					2.358735956353919
				],
				"cp": "75018",
				"num_bv": "52",
				"id_bv": "18-52"
			}
		},
		{
			"type": "Feature",
			"geometry": {
				"type": "Point",
				"coordinates": [
					2.335628785915552,
					48.8963492007792
				]
			},
			"properties": {
				"Nom": "ECOLE ELEMENTAIRE",
				"objectid": 727,
				"Adresse": "129 RUE BELLIARD",
				"geo_point_2d": [
					48.8963492007792,
					2.335628785915552
				],
				"cp": "75018",
				"num_bv": "45",
				"id_bv": "18-45"
			}
		},
		{
			"type": "Feature",
			"geometry": {
				"type": "Point",
				"coordinates": [
					2.335810572366515,
					48.89077288923447
				]
			},
			"properties": {
				"Nom": "ECOLE MATERNELLE",
				"objectid": 718,
				"Adresse": "4 SQUARE LAMARCK",
				"geo_point_2d": [
					48.89077288923447,
					2.335810572366515
				],
				"cp": "75018",
				"num_bv": "36",
				"id_bv": "18-36"
			}
		},
		{
			"type": "Feature",
			"geometry": {
				"type": "Point",
				"coordinates": [
					2.338452327331318,
					48.88322840307661
				]
			},
			"properties": {
				"Nom": "ECOLE ELEMENTAIRE",
				"objectid": 709,
				"Adresse": "15 RUE HOUDON",
				"geo_point_2d": [
					48.88322840307661,
					2.338452327331318
				],
				"cp": "75018",
				"num_bv": "27",
				"id_bv": "18-27"
			}
		},
		{
			"type": "Feature",
			"geometry": {
				"type": "Point",
				"coordinates": [
					2.411159984845177,
					48.868058336258436
				]
			},
			"properties": {
				"Nom": "COLLEGE PIERRE MENDES-FRANCE",
				"objectid": 850,
				"Adresse": "24 RUE LE VAU",
				"geo_point_2d": [
					48.868058336258436,
					2.411159984845177
				],
				"cp": "75020",
				"num_bv": "30",
				"id_bv": "20-30"
			}
		},
		{
			"type": "Feature",
			"geometry": {
				"type": "Point",
				"coordinates": [
					2.406501329141083,
					48.8509089751079
				]
			},
			"properties": {
				"Nom": "COLLEGE LUCIE FAURE",
				"objectid": 872,
				"Adresse": "40 RUE DES PYRENEES",
				"geo_point_2d": [
					48.8509089751079,
					2.406501329141083
				],
				"cp": "75020",
				"num_bv": "52",
				"id_bv": "20-52"
			}
		},
		{
			"type": "Feature",
			"geometry": {
				"type": "Point",
				"coordinates": [
					2.400509736780815,
					48.85004071995319
				]
			},
			"properties": {
				"Nom": "ECOLE ELEMENTAIRE",
				"objectid": 871,
				"Adresse": "11 RUE DE LA PLAINE",
				"geo_point_2d": [
					48.85004071995319,
					2.400509736780815
				],
				"cp": "75020",
				"num_bv": "51",
				"id_bv": "20-51"
			}
		},
		{
			"type": "Feature",
			"geometry": {
				"type": "Point",
				"coordinates": [
					2.382206048084391,
					48.870415291937015
				]
			},
			"properties": {
				"Nom": "ECOLE MATERNELLE",
				"objectid": 895,
				"Adresse": "32 RUE DE PALI KAO",
				"geo_point_2d": [
					48.870415291937015,
					2.382206048084391
				],
				"cp": "75020",
				"num_bv": "75",
				"id_bv": "20-75"
			}
		},
		{
			"type": "Feature",
			"geometry": {
				"type": "Point",
				"coordinates": [
					2.410899653787151,
					48.856608683527966
				]
			},
			"properties": {
				"Nom": "ECOLE ELEMENTAIRE",
				"objectid": 854,
				"Adresse": "4 RUE EUGENE REISZ",
				"geo_point_2d": [
					48.856608683527966,
					2.410899653787151
				],
				"cp": "75020",
				"num_bv": "34",
				"id_bv": "20-34"
			}
		},
		{
			"type": "Feature",
			"geometry": {
				"type": "Point",
				"coordinates": [
					2.409217978314873,
					48.871340990620716
				]
			},
			"properties": {
				"Nom": "ECOLE MATERNELLE",
				"objectid": 848,
				"Adresse": "2 RUE PIERRE FONCIN",
				"geo_point_2d": [
					48.871340990620716,
					2.409217978314873
				],
				"cp": "75020",
				"num_bv": "28",
				"id_bv": "20-28"
			}
		},
		{
			"type": "Feature",
			"geometry": {
				"type": "Point",
				"coordinates": [
					2.405218259525159,
					48.8551501406038
				]
			},
			"properties": {
				"Nom": "ECOLE MATERNELLE",
				"objectid": 863,
				"Adresse": "99 RUE DES PYRENEES",
				"geo_point_2d": [
					48.8551501406038,
					2.405218259525159
				],
				"cp": "75020",
				"num_bv": "43",
				"id_bv": "20-43"
			}
		},
		{
			"type": "Feature",
			"geometry": {
				"type": "Point",
				"coordinates": [
					2.393942885474253,
					48.868979365079646
				]
			},
			"properties": {
				"Nom": "ECOLE MATERNELLE",
				"objectid": 887,
				"Adresse": "24 RUE DU RETRAIT",
				"geo_point_2d": [
					48.868979365079646,
					2.393942885474253
				],
				"cp": "75020",
				"num_bv": "67",
				"id_bv": "20-67"
			}
		},
		{
			"type": "Feature",
			"geometry": {
				"type": "Point",
				"coordinates": [
					2.39971564099787,
					48.85905211417015
				]
			},
			"properties": {
				"Nom": "ECOLE ELEMENTAIRE",
				"objectid": 879,
				"Adresse": "11 RUE DE LESSEPS",
				"geo_point_2d": [
					48.85905211417015,
					2.39971564099787
				],
				"cp": "75020",
				"num_bv": "59",
				"id_bv": "20-59"
			}
		},
		{
			"type": "Feature",
			"geometry": {
				"type": "Point",
				"coordinates": [
					2.406797215512432,
					48.85926120780092
				]
			},
			"properties": {
				"Nom": "ECOLE MATERNELLE",
				"objectid": 860,
				"Adresse": "68 RUE VITRUVE",
				"geo_point_2d": [
					48.85926120780092,
					2.406797215512432
				],
				"cp": "75020",
				"num_bv": "40",
				"id_bv": "20-40"
			}
		},
		{
			"type": "Feature",
			"geometry": {
				"type": "Point",
				"coordinates": [
					2.28944975612092,
					48.88256663202419
				]
			},
			"properties": {
				"Nom": "ECOLE BLANCHE DE CASTILLE",
				"objectid": 668,
				"Adresse": "8 ter RUE ROGER BACON",
				"geo_point_2d": [
					48.88256663202419,
					2.28944975612092
				],
				"cp": "75017",
				"num_bv": "53",
				"id_bv": "17-53"
			}
		},
		{
			"type": "Feature",
			"geometry": {
				"type": "Point",
				"coordinates": [
					2.28944975612092,
					48.88256663202419
				]
			},
			"properties": {
				"Nom": "ECOLE BLANCHE DE CASTILLE",
				"objectid": 671,
				"Adresse": "8 ter RUE ROGER BACON",
				"geo_point_2d": [
					48.88256663202419,
					2.28944975612092
				],
				"cp": "75017",
				"num_bv": "56",
				"id_bv": "17-56"
			}
		},
		{
			"type": "Feature",
			"geometry": {
				"type": "Point",
				"coordinates": [
					2.344687212850018,
					48.89230356684379
				]
			},
			"properties": {
				"Nom": "MAIRIE D'ARRONDISSEMENT",
				"objectid": 684,
				"Adresse": "1 PLACE JULES JOFFRIN",
				"geo_point_2d": [
					48.89230356684379,
					2.344687212850018
				],
				"cp": "75018",
				"num_bv": "2",
				"id_bv": "18-2"
			}
		},
		{
			"type": "Feature",
			"geometry": {
				"type": "Point",
				"coordinates": [
					2.344756424511706,
					48.89820810954946
				]
			},
			"properties": {
				"Nom": "COLLEGE MAURICE UTRILLO",
				"objectid": 695,
				"Adresse": "100 BOULEVARD NEY",
				"geo_point_2d": [
					48.89820810954946,
					2.344756424511706
				],
				"cp": "75018",
				"num_bv": "13",
				"id_bv": "18-13"
			}
		},
		{
			"type": "Feature",
			"geometry": {
				"type": "Point",
				"coordinates": [
					2.344687212850018,
					48.89230356684379
				]
			},
			"properties": {
				"Nom": "MAIRIE D'ARRONDISSEMENT",
				"objectid": 683,
				"Adresse": "1 PLACE JULES JOFFRIN",
				"geo_point_2d": [
					48.89230356684379,
					2.344687212850018
				],
				"cp": "75018",
				"num_bv": "1",
				"id_bv": "18-1"
			}
		},
		{
			"type": "Feature",
			"geometry": {
				"type": "Point",
				"coordinates": [
					2.3516684477344763,
					48.89517334948136
				]
			},
			"properties": {
				"Nom": "COLLEGE GERARD PHILIPE",
				"objectid": 697,
				"Adresse": "11 RUE CHAMPIONNET",
				"geo_point_2d": [
					48.89517334948136,
					2.3516684477344763
				],
				"cp": "75018",
				"num_bv": "15",
				"id_bv": "18-15"
			}
		},
		{
			"type": "Feature",
			"geometry": {
				"type": "Point",
				"coordinates": [
					2.307843957216669,
					48.88447741558528
				]
			},
			"properties": {
				"Nom": "LYCEE CARNOT",
				"objectid": 661,
				"Adresse": "145 BOULEVARD MALESHERBES",
				"geo_point_2d": [
					48.88447741558528,
					2.307843957216669
				],
				"cp": "75017",
				"num_bv": "46",
				"id_bv": "17-46"
			}
		},
		{
			"type": "Feature",
			"geometry": {
				"type": "Point",
				"coordinates": [
					2.290018853330544,
					48.88812440202349
				]
			},
			"properties": {
				"Nom": "ECOLE MATERNELLE",
				"objectid": 672,
				"Adresse": "6 RUE LOUIS VIERNE",
				"geo_point_2d": [
					48.88812440202349,
					2.290018853330544
				],
				"cp": "75017",
				"num_bv": "57",
				"id_bv": "17-57"
			}
		},
		{
			"type": "Feature",
			"geometry": {
				"type": "Point",
				"coordinates": [
					2.293146442622068,
					48.880967649366326
				]
			},
			"properties": {
				"Nom": "RESIDENCE DES TERNES",
				"objectid": 670,
				"Adresse": "28 RUE BAYEN",
				"geo_point_2d": [
					48.880967649366326,
					2.293146442622068
				],
				"cp": "75017",
				"num_bv": "55",
				"id_bv": "17-55"
			}
		},
		{
			"type": "Feature",
			"geometry": {
				"type": "Point",
				"coordinates": [
					2.344306394607543,
					48.885013867573846
				]
			},
			"properties": {
				"Nom": "GYMNASE RONSARD",
				"objectid": 703,
				"Adresse": "2 RUE RONSARD",
				"geo_point_2d": [
					48.885013867573846,
					2.344306394607543
				],
				"cp": "75018",
				"num_bv": "21",
				"id_bv": "18-21"
			}
		},
		{
			"type": "Feature",
			"geometry": {
				"type": "Point",
				"coordinates": [
					2.335488359834315,
					48.864652867508056
				]
			},
			"properties": {
				"Nom": "COLLEGE D'ENSEIGNEMENT SECONDAIRE POQUELIN",
				"objectid": 7,
				"Adresse": "6 RUE MOLIERE",
				"geo_point_2d": [
					48.864652867508056,
					2.335488359834315
				],
				"cp": "75001",
				"num_bv": "7",
				"id_bv": "1-7"
			}
		},
		{
			"type": "Feature",
			"geometry": {
				"type": "Point",
				"coordinates": [
					2.34831457297985,
					48.864140575177004
				]
			},
			"properties": {
				"Nom": "ECOLE ELEMENTAIRE",
				"objectid": 17,
				"Adresse": "20 RUE ETIENNE MARCEL",
				"geo_point_2d": [
					48.864140575177004,
					2.34831457297985
				],
				"cp": "75002",
				"num_bv": "7",
				"id_bv": "2-7"
			}
		},
		{
			"type": "Feature",
			"geometry": {
				"type": "Point",
				"coordinates": [
					2.355692851936706,
					48.85618806404231
				]
			},
			"properties": {
				"Nom": "MAIRIE D'ARRONDISSEMENT",
				"objectid": 36,
				"Adresse": "2 PLACE BAUDOYER",
				"geo_point_2d": [
					48.85618806404231,
					2.355692851936706
				],
				"cp": "75004",
				"num_bv": "1",
				"id_bv": "4-1"
			}
		},
		{
			"type": "Feature",
			"geometry": {
				"type": "Point",
				"coordinates": [
					2.35281230895645,
					48.86407166584712
				]
			},
			"properties": {
				"Nom": "ECOLE ELEMENTAIRE",
				"objectid": 29,
				"Adresse": "211 RUE SAINT MARTIN",
				"geo_point_2d": [
					48.86407166584712,
					2.35281230895645
				],
				"cp": "75003",
				"num_bv": "9",
				"id_bv": "3-9"
			}
		},
		{
			"type": "Feature",
			"geometry": {
				"type": "Point",
				"coordinates": [
					2.33382325877587,
					48.864885759679275
				]
			},
			"properties": {
				"Nom": "ECOLE ELEMENTAIRE",
				"objectid": 8,
				"Adresse": "11 RUE D ARGENTEUIL",
				"geo_point_2d": [
					48.864885759679275,
					2.33382325877587
				],
				"cp": "75001",
				"num_bv": "8",
				"id_bv": "1-8"
			}
		},
		{
			"type": "Feature",
			"geometry": {
				"type": "Point",
				"coordinates": [
					2.349694351116603,
					48.86716386884836
				]
			},
			"properties": {
				"Nom": "ECOLE ELEMENTAIRE",
				"objectid": 18,
				"Adresse": "42 RUE DUSSOUBS",
				"geo_point_2d": [
					48.86716386884836,
					2.349694351116603
				],
				"cp": "75002",
				"num_bv": "8",
				"id_bv": "2-8"
			}
		},
		{
			"type": "Feature",
			"geometry": {
				"type": "Point",
				"coordinates": [
					2.362275392361232,
					48.85782772152068
				]
			},
			"properties": {
				"Nom": "LYCEE VICTOR HUGO",
				"objectid": 28,
				"Adresse": "6 RUE PAYENNE",
				"geo_point_2d": [
					48.85782772152068,
					2.362275392361232
				],
				"cp": "75003",
				"num_bv": "8",
				"id_bv": "3-8"
			}
		},
		{
			"type": "Feature",
			"geometry": {
				"type": "Point",
				"coordinates": [
					2.338842462716922,
					48.866498787087174
				]
			},
			"properties": {
				"Nom": "INHA",
				"objectid": 12,
				"Adresse": "2 RUE VIVIENNE",
				"geo_point_2d": [
					48.866498787087174,
					2.338842462716922
				],
				"cp": "75002",
				"num_bv": "2",
				"id_bv": "2-2"
			}
		},
		{
			"type": "Feature",
			"geometry": {
				"type": "Point",
				"coordinates": [
					2.331052973149332,
					48.84373778468044
				]
			},
			"properties": {
				"Nom": "INSTITUT NOTRE DAME DE SION",
				"objectid": 94,
				"Adresse": "61 RUE NOTRE DAME DES CHAMPS",
				"geo_point_2d": [
					48.84373778468044,
					2.331052973149332
				],
				"cp": "75006",
				"num_bv": "20",
				"id_bv": "6-20"
			}
		},
		{
			"type": "Feature",
			"geometry": {
				"type": "Point",
				"coordinates": [
					2.309080059051487,
					48.85691247965493
				]
			},
			"properties": {
				"Nom": "ECOLE ELEMENTAIRE",
				"objectid": 111,
				"Adresse": "10 AVENUE DE LA MOTTE PICQUET",
				"geo_point_2d": [
					48.85691247965493,
					2.309080059051487
				],
				"cp": "75007",
				"num_bv": "15",
				"id_bv": "7-15"
			}
		},
		{
			"type": "Feature",
			"geometry": {
				"type": "Point",
				"coordinates": [
					2.333814832714239,
					48.841017653752694
				]
			},
			"properties": {
				"Nom": "ECOLE ALSACIENNE",
				"objectid": 96,
				"Adresse": "109 RUE NOTRE DAME DES CHAMPS",
				"geo_point_2d": [
					48.841017653752694,
					2.333814832714239
				],
				"cp": "75006",
				"num_bv": "22",
				"id_bv": "6-22"
			}
		},
		{
			"type": "Feature",
			"geometry": {
				"type": "Point",
				"coordinates": [
					2.328395892466149,
					48.85413398347736
				]
			},
			"properties": {
				"Nom": "INSTITUT D'ETUDES POLITIQUES",
				"objectid": 103,
				"Adresse": "27 RUE SAINT GUILLAUME",
				"geo_point_2d": [
					48.85413398347736,
					2.328395892466149
				],
				"cp": "75007",
				"num_bv": "7",
				"id_bv": "7-7"
			}
		},
		{
			"type": "Feature",
			"geometry": {
				"type": "Point",
				"coordinates": [
					2.340619505842088,
					48.854935408898754
				]
			},
			"properties": {
				"Nom": "ETABLISSEMENT SCOLAIRE",
				"objectid": 78,
				"Adresse": "2 RUE DU PONT DE LODI",
				"geo_point_2d": [
					48.854935408898754,
					2.340619505842088
				],
				"cp": "75006",
				"num_bv": "4",
				"id_bv": "6-4"
			}
		},
		{
			"type": "Feature",
			"geometry": {
				"type": "Point",
				"coordinates": [
					2.320043697318318,
					48.856866485651466
				]
			},
			"properties": {
				"Nom": "MAIRIE D'ARRONDISSEMENT",
				"objectid": 102,
				"Adresse": "116 RUE DE GRENELLE",
				"geo_point_2d": [
					48.856866485651466,
					2.320043697318318
				],
				"cp": "75007",
				"num_bv": "6",
				"id_bv": "7-6"
			}
		},
		{
			"type": "Feature",
			"geometry": {
				"type": "Point",
				"coordinates": [
					2.327529609247871,
					48.847869864850495
				]
			},
			"properties": {
				"Nom": "CENTRE ANDRE MALRAUX",
				"objectid": 87,
				"Adresse": "112 RUE DE RENNES",
				"geo_point_2d": [
					48.847869864850495,
					2.327529609247871
				],
				"cp": "75006",
				"num_bv": "13",
				"id_bv": "6-13"
			}
		},
		{
			"type": "Feature",
			"geometry": {
				"type": "Point",
				"coordinates": [
					2.313024270456671,
					48.84959294935872
				]
			},
			"properties": {
				"Nom": "ECOLE ELEMENTAIRE",
				"objectid": 108,
				"Adresse": "42 AVENUE DUQUESNE",
				"geo_point_2d": [
					48.84959294935872,
					2.313024270456671
				],
				"cp": "75007",
				"num_bv": "12",
				"id_bv": "7-12"
			}
		},
		{
			"type": "Feature",
			"geometry": {
				"type": "Point",
				"coordinates": [
					2.313024270456671,
					48.84959294935872
				]
			},
			"properties": {
				"Nom": "ECOLE ELEMENTAIRE",
				"objectid": 105,
				"Adresse": "42 AVENUE DUQUESNE",
				"geo_point_2d": [
					48.84959294935872,
					2.313024270456671
				],
				"cp": "75007",
				"num_bv": "9",
				"id_bv": "7-9"
			}
		},
		{
			"type": "Feature",
			"geometry": {
				"type": "Point",
				"coordinates": [
					2.318591447391616,
					48.858978423194415
				]
			},
			"properties": {
				"Nom": "ECOLE POLYVALENTE",
				"objectid": 98,
				"Adresse": "27 RUE LAS CASES",
				"geo_point_2d": [
					48.858978423194415,
					2.318591447391616
				],
				"cp": "75007",
				"num_bv": "2",
				"id_bv": "7-2"
			}
		},
		{
			"type": "Feature",
			"geometry": {
				"type": "Point",
				"coordinates": [
					2.357382644948622,
					48.87178451190306
				]
			},
			"properties": {
				"Nom": "MAIRIE D'ARRONDISSEMENT",
				"objectid": 167,
				"Adresse": "72 RUE DU FAUBOURG SAINT MARTIN",
				"geo_point_2d": [
					48.87178451190306,
					2.357382644948622
				],
				"cp": "75010",
				"num_bv": "1",
				"id_bv": "10-1"
			}
		},
		{
			"type": "Feature",
			"geometry": {
				"type": "Point",
				"coordinates": [
					2.340911947198345,
					48.8797224867144
				]
			},
			"properties": {
				"Nom": "ECOLE ELEMENTAIRE",
				"objectid": 162,
				"Adresse": "45 RUE DE LA TOUR D AUVERGNE",
				"geo_point_2d": [
					48.8797224867144,
					2.340911947198345
				],
				"cp": "75009",
				"num_bv": "23",
				"id_bv": "9-23"
			}
		},
		{
			"type": "Feature",
			"geometry": {
				"type": "Point",
				"coordinates": [
					2.342063799577491,
					48.87301747330384
				]
			},
			"properties": {
				"Nom": "ECOLE MATERNELLE",
				"objectid": 143,
				"Adresse": "11 RUE DE LA GRANGE BATELIERE",
				"geo_point_2d": [
					48.87301747330384,
					2.342063799577491
				],
				"cp": "75009",
				"num_bv": "4",
				"id_bv": "9-4"
			}
		},
		{
			"type": "Feature",
			"geometry": {
				"type": "Point",
				"coordinates": [
					2.304784825574433,
					48.87602928391506
				]
			},
			"properties": {
				"Nom": "MAISON DES ASSOCIATIONS",
				"objectid": 136,
				"Adresse": "28 RUE LAURE DIEBOLD",
				"geo_point_2d": [
					48.87602928391506,
					2.304784825574433
				],
				"cp": "75008",
				"num_bv": "15",
				"id_bv": "8-15"
			}
		},
		{
			"type": "Feature",
			"geometry": {
				"type": "Point",
				"coordinates": [
					2.31640669540361,
					48.879313351570524
				]
			},
			"properties": {
				"Nom": "ANNEXE DU LYCEE RACINE",
				"objectid": 124,
				"Adresse": "38 RUE DE NAPLES",
				"geo_point_2d": [
					48.879313351570524,
					2.31640669540361
				],
				"cp": "75008",
				"num_bv": "3",
				"id_bv": "8-3"
			}
		},
		{
			"type": "Feature",
			"geometry": {
				"type": "Point",
				"coordinates": [
					2.305216023193974,
					48.86866768869151
				]
			},
			"properties": {
				"Nom": "ECOLE ELEMENTAIRE",
				"objectid": 138,
				"Adresse": "7 RUE ROBERT ESTIENNE",
				"geo_point_2d": [
					48.86866768869151,
					2.305216023193974
				],
				"cp": "75008",
				"num_bv": "17",
				"id_bv": "8-17"
			}
		},
		{
			"type": "Feature",
			"geometry": {
				"type": "Point",
				"coordinates": [
					2.370702373345587,
					48.876070518312844
				]
			},
			"properties": {
				"Nom": "ECOLE MATERNELLE",
				"objectid": 182,
				"Adresse": "18 RUE VICQ D AZIR",
				"geo_point_2d": [
					48.876070518312844,
					2.370702373345587
				],
				"cp": "75010",
				"num_bv": "16",
				"id_bv": "10-16"
			}
		},
		{
			"type": "Feature",
			"geometry": {
				"type": "Point",
				"coordinates": [
					2.370558691684241,
					48.87606960102597
				]
			},
			"properties": {
				"Nom": "ECOLE ELEMENTAIRE",
				"objectid": 181,
				"Adresse": "16 RUE VICQ D AZIR",
				"geo_point_2d": [
					48.87606960102597,
					2.370558691684241
				],
				"cp": "75010",
				"num_bv": "15",
				"id_bv": "10-15"
			}
		},
		{
			"type": "Feature",
			"geometry": {
				"type": "Point",
				"coordinates": [
					2.36382465940898,
					48.87175161694108
				]
			},
			"properties": {
				"Nom": "ECOLE ELEMENTAIRE",
				"objectid": 176,
				"Adresse": "17 RUE DE MARSEILLE",
				"geo_point_2d": [
					48.87175161694108,
					2.36382465940898
				],
				"cp": "75010",
				"num_bv": "10",
				"id_bv": "10-10"
			}
		},
		{
			"type": "Feature",
			"geometry": {
				"type": "Point",
				"coordinates": [
					2.345147046855935,
					48.88050058247676
				]
			},
			"properties": {
				"Nom": "ECOLE ELEMENTAIRE",
				"objectid": 165,
				"Adresse": "15 RUE TURGOT",
				"geo_point_2d": [
					48.88050058247676,
					2.345147046855935
				],
				"cp": "75009",
				"num_bv": "26",
				"id_bv": "9-26"
			}
		},
		{
			"type": "Feature",
			"geometry": {
				"type": "Point",
				"coordinates": [
					2.356256611087312,
					48.821637348924035
				]
			},
			"properties": {
				"Nom": "ECOLE MATERNELLE",
				"objectid": 367,
				"Adresse": "2 PLACE DES QUARANTE-QUATRE ENFANTS D'IZIEU",
				"geo_point_2d": [
					48.821637348924035,
					2.356256611087312
				],
				"cp": "75013",
				"num_bv": "43",
				"id_bv": "13-43"
			}
		},
		{
			"type": "Feature",
			"geometry": {
				"type": "Point",
				"coordinates": [
					2.325920050643497,
					48.83274771195874
				]
			},
			"properties": {
				"Nom": "ANNEXE DE LA MAIRIE D'ARRONDISSEMENT",
				"objectid": 396,
				"Adresse": "12 RUE PIERRE CASTAGNOU",
				"geo_point_2d": [
					48.83274771195874,
					2.325920050643497
				],
				"cp": "75014",
				"num_bv": "1",
				"id_bv": "14-1"
			}
		},
		{
			"type": "Feature",
			"geometry": {
				"type": "Point",
				"coordinates": [
					2.347819070621493,
					48.861470009456895
				]
			},
			"properties": {
				"Nom": "CONSERVATOIRE W. A. MOZART",
				"objectid": 6,
				"Adresse": "7 PASSAGE DE LA CANOPEE",
				"geo_point_2d": [
					48.861470009456895,
					2.347819070621493
				],
				"cp": "75001",
				"num_bv": "6",
				"id_bv": "1-6"
			}
		},
		{
			"type": "Feature",
			"geometry": {
				"type": "Point",
				"coordinates": [
					2.338842462716922,
					48.866498787087174
				]
			},
			"properties": {
				"Nom": "INHA",
				"objectid": 13,
				"Adresse": "2 RUE VIVIENNE",
				"geo_point_2d": [
					48.866498787087174,
					2.338842462716922
				],
				"cp": "75002",
				"num_bv": "3",
				"id_bv": "2-3"
			}
		},
		{
			"type": "Feature",
			"geometry": {
				"type": "Point",
				"coordinates": [
					2.368277747244554,
					48.87698187584886
				]
			},
			"properties": {
				"Nom": "CENTRE ANIMATION GRANGE AUX BELLES",
				"objectid": 184,
				"Adresse": "6 RUE BOY ZELENSKI",
				"geo_point_2d": [
					48.87698187584886,
					2.368277747244554
				],
				"cp": "75010",
				"num_bv": "18",
				"id_bv": "10-18"
			}
		},
		{
			"type": "Feature",
			"geometry": {
				"type": "Point",
				"coordinates": [
					2.352858995710645,
					48.87746346267527
				]
			},
			"properties": {
				"Nom": "COLLEGE BERNARD PALISSY",
				"objectid": 197,
				"Adresse": "21 RUE DES PETITS HOTELS",
				"geo_point_2d": [
					48.87746346267527,
					2.352858995710645
				],
				"cp": "75010",
				"num_bv": "31",
				"id_bv": "10-31"
			}
		},
		{
			"type": "Feature",
			"geometry": {
				"type": "Point",
				"coordinates": [
					2.3625162520929512,
					48.882409492853064
				]
			},
			"properties": {
				"Nom": "ECOLE ELEMENTAIRE",
				"objectid": 191,
				"Adresse": "49 bis RUE LOUIS BLANC",
				"geo_point_2d": [
					48.882409492853064,
					2.3625162520929512
				],
				"cp": "75010",
				"num_bv": "25",
				"id_bv": "10-25"
			}
		},
		{
			"type": "Feature",
			"geometry": {
				"type": "Point",
				"coordinates": [
					2.367400654616489,
					48.88182601542487
				]
			},
			"properties": {
				"Nom": "ECOLE ELEMENTAIRE",
				"objectid": 189,
				"Adresse": "216 bis RUE LA FAYETTE",
				"geo_point_2d": [
					48.88182601542487,
					2.367400654616489
				],
				"cp": "75010",
				"num_bv": "23",
				"id_bv": "10-23"
			}
		},
		{
			"type": "Feature",
			"geometry": {
				"type": "Point",
				"coordinates": [
					2.370129188219179,
					48.8611104939147
				]
			},
			"properties": {
				"Nom": "ECOLE ELEMENTAIRE",
				"objectid": 221,
				"Adresse": "17 RUE ALPHONSE BAUDIN",
				"geo_point_2d": [
					48.8611104939147,
					2.370129188219179
				],
				"cp": "75011",
				"num_bv": "16",
				"id_bv": "11-16"
			}
		},
		{
			"type": "Feature",
			"geometry": {
				"type": "Point",
				"coordinates": [
					2.353018651116572,
					48.87681431371539
				]
			},
			"properties": {
				"Nom": "ECOLE ELEMENTAIRE",
				"objectid": 200,
				"Adresse": "41 RUE DE CHABROL",
				"geo_point_2d": [
					48.87681431371539,
					2.353018651116572
				],
				"cp": "75010",
				"num_bv": "34",
				"id_bv": "10-34"
			}
		},
		{
			"type": "Feature",
			"geometry": {
				"type": "Point",
				"coordinates": [
					2.366905957280338,
					48.86423155190503
				]
			},
			"properties": {
				"Nom": "COLLEGE BEAUMARCHAIS",
				"objectid": 226,
				"Adresse": "124 RUE AMELOT",
				"geo_point_2d": [
					48.86423155190503,
					2.366905957280338
				],
				"cp": "75011",
				"num_bv": "21",
				"id_bv": "11-21"
			}
		},
		{
			"type": "Feature",
			"geometry": {
				"type": "Point",
				"coordinates": [
					2.377318737969334,
					48.857379064370576
				]
			},
			"properties": {
				"Nom": "ECOLE MATERNELLE",
				"objectid": 217,
				"Adresse": "9 RUE POPINCOURT",
				"geo_point_2d": [
					48.857379064370576,
					2.377318737969334
				],
				"cp": "75011",
				"num_bv": "12",
				"id_bv": "11-12"
			}
		},
		{
			"type": "Feature",
			"geometry": {
				"type": "Point",
				"coordinates": [
					2.352914620723137,
					48.87397516876514
				]
			},
			"properties": {
				"Nom": "ECOLE ELEMENTAIRE",
				"objectid": 201,
				"Adresse": "9 RUE MARTEL",
				"geo_point_2d": [
					48.87397516876514,
					2.352914620723137
				],
				"cp": "75010",
				"num_bv": "35",
				"id_bv": "10-35"
			}
		},
		{
			"type": "Feature",
			"geometry": {
				"type": "Point",
				"coordinates": [
					2.376473560592383,
					48.85411494370334
				]
			},
			"properties": {
				"Nom": "ECOLE ELEMENTAIRE",
				"objectid": 214,
				"Adresse": "10 RUE KELLER",
				"geo_point_2d": [
					48.85411494370334,
					2.376473560592383
				],
				"cp": "75011",
				"num_bv": "9",
				"id_bv": "11-9"
			}
		},
		{
			"type": "Feature",
			"geometry": {
				"type": "Point",
				"coordinates": [
					2.372476969039184,
					48.871757943676236
				]
			},
			"properties": {
				"Nom": "GYMNASE BUISSON SAINT-LOUIS",
				"objectid": 178,
				"Adresse": "2 RUE DU BUISSON SAINT LOUIS",
				"geo_point_2d": [
					48.871757943676236,
					2.372476969039184
				],
				"cp": "75010",
				"num_bv": "12",
				"id_bv": "10-12"
			}
		},
		{
			"type": "Feature",
			"geometry": {
				"type": "Point",
				"coordinates": [
					2.349089438924371,
					48.87838140002077
				]
			},
			"properties": {
				"Nom": "LYCEE LAMARTINE",
				"objectid": 161,
				"Adresse": "121 RUE DU FAUBOURG POISSONNIERE",
				"geo_point_2d": [
					48.87838140002077,
					2.349089438924371
				],
				"cp": "75009",
				"num_bv": "22",
				"id_bv": "9-22"
			}
		},
		{
			"type": "Feature",
			"geometry": {
				"type": "Point",
				"coordinates": [
					2.343423695492619,
					48.88148628151363
				]
			},
			"properties": {
				"Nom": "LYCEE JACQUES DECOUR",
				"objectid": 164,
				"Adresse": "12 AVENUE TRUDAINE",
				"geo_point_2d": [
					48.88148628151363,
					2.343423695492619
				],
				"cp": "75009",
				"num_bv": "25",
				"id_bv": "9-25"
			}
		},
		{
			"type": "Feature",
			"geometry": {
				"type": "Point",
				"coordinates": [
					2.34043231004152,
					48.87719337172559
				]
			},
			"properties": {
				"Nom": "ECOLE ELEMENTAIRE",
				"objectid": 159,
				"Adresse": "10 RUE HIPPOLYTE LEBAS",
				"geo_point_2d": [
					48.87719337172559,
					2.34043231004152
				],
				"cp": "75009",
				"num_bv": "20",
				"id_bv": "9-20"
			}
		},
		{
			"type": "Feature",
			"geometry": {
				"type": "Point",
				"coordinates": [
					2.371684842862423,
					48.87223208263676
				]
			},
			"properties": {
				"Nom": "ECOLE ELEMENTAIRE",
				"objectid": 180,
				"Adresse": "200 RUE SAINT MAUR",
				"geo_point_2d": [
					48.87223208263676,
					2.371684842862423
				],
				"cp": "75010",
				"num_bv": "14",
				"id_bv": "10-14"
			}
		},
		{
			"type": "Feature",
			"geometry": {
				"type": "Point",
				"coordinates": [
					2.328801395642384,
					48.88299974956884
				]
			},
			"properties": {
				"Nom": "ECOLE ELEMENTAIRE",
				"objectid": 155,
				"Adresse": "32 RUE DE BRUXELLES",
				"geo_point_2d": [
					48.88299974956884,
					2.328801395642384
				],
				"cp": "75009",
				"num_bv": "16",
				"id_bv": "9-16"
			}
		},
		{
			"type": "Feature",
			"geometry": {
				"type": "Point",
				"coordinates": [
					2.35798130113703,
					48.871473270694544
				]
			},
			"properties": {
				"Nom": "ECOLE MATERNELLE",
				"objectid": 169,
				"Adresse": "2 RUE PIERRE BULLET",
				"geo_point_2d": [
					48.871473270694544,
					2.35798130113703
				],
				"cp": "75010",
				"num_bv": "3",
				"id_bv": "10-3"
			}
		},
		{
			"type": "Feature",
			"geometry": {
				"type": "Point",
				"coordinates": [
					2.342345235504527,
					48.87923075318607
				]
			},
			"properties": {
				"Nom": "GYMNASE PAUL GAUGUIN",
				"objectid": 158,
				"Adresse": "35 RUE MILTON",
				"geo_point_2d": [
					48.87923075318607,
					2.342345235504527
				],
				"cp": "75009",
				"num_bv": "19",
				"id_bv": "9-19"
			}
		},
		{
			"type": "Feature",
			"geometry": {
				"type": "Point",
				"coordinates": [
					2.330467370477211,
					48.8777269119818
				]
			},
			"properties": {
				"Nom": "ECOLE ELEMENTAIRE",
				"objectid": 156,
				"Adresse": "10 RUE DE CLICHY",
				"geo_point_2d": [
					48.8777269119818,
					2.330467370477211
				],
				"cp": "75009",
				"num_bv": "17",
				"id_bv": "9-17"
			}
		},
		{
			"type": "Feature",
			"geometry": {
				"type": "Point",
				"coordinates": [
					2.333632148053427,
					48.880824655934525
				]
			},
			"properties": {
				"Nom": "ECOLE ELEMENTAIRE",
				"objectid": 153,
				"Adresse": "12 RUE CHAPTAL",
				"geo_point_2d": [
					48.880824655934525,
					2.333632148053427
				],
				"cp": "75009",
				"num_bv": "14",
				"id_bv": "9-14"
			}
		},
		{
			"type": "Feature",
			"geometry": {
				"type": "Point",
				"coordinates": [
					2.375167403615806,
					48.82531537552594
				]
			},
			"properties": {
				"Nom": "LYCEE PROFESSIONNEL GALILEE",
				"objectid": 350,
				"Adresse": "28 RUE DE PATAY",
				"geo_point_2d": [
					48.82531537552594,
					2.375167403615806
				],
				"cp": "75013",
				"num_bv": "26",
				"id_bv": "13-26"
			}
		},
		{
			"type": "Feature",
			"geometry": {
				"type": "Point",
				"coordinates": [
					2.343168417335833,
					48.8292602721854
				]
			},
			"properties": {
				"Nom": "ECOLE ELEMENTAIRE",
				"objectid": 379,
				"Adresse": "100 RUE DE LA GLACIERE",
				"geo_point_2d": [
					48.8292602721854,
					2.343168417335833
				],
				"cp": "75013",
				"num_bv": "55",
				"id_bv": "13-55"
			}
		},
		{
			"type": "Feature",
			"geometry": {
				"type": "Point",
				"coordinates": [
					2.347484231683314,
					48.82026224400042
				]
			},
			"properties": {
				"Nom": "ECOLE MATERNELLE",
				"objectid": 370,
				"Adresse": "84 BOULEVARD KELLERMANN",
				"geo_point_2d": [
					48.82026224400042,
					2.347484231683314
				],
				"cp": "75013",
				"num_bv": "46",
				"id_bv": "13-46"
			}
		},
		{
			"type": "Feature",
			"geometry": {
				"type": "Point",
				"coordinates": [
					2.360346525720605,
					48.82071610023313
				]
			},
			"properties": {
				"Nom": "L E I GASTON BACHELARD",
				"objectid": 362,
				"Adresse": "2 RUE TAGORE",
				"geo_point_2d": [
					48.82071610023313,
					2.360346525720605
				],
				"cp": "75013",
				"num_bv": "38",
				"id_bv": "13-38"
			}
		},
		{
			"type": "Feature",
			"geometry": {
				"type": "Point",
				"coordinates": [
					2.369042816412052,
					48.82088925082744
				]
			},
			"properties": {
				"Nom": "ECOLE ELEMENTAIRE",
				"objectid": 344,
				"Adresse": "3 RUE EMILE LEVASSOR",
				"geo_point_2d": [
					48.82088925082744,
					2.369042816412052
				],
				"cp": "75013",
				"num_bv": "20",
				"id_bv": "13-20"
			}
		},
		{
			"type": "Feature",
			"geometry": {
				"type": "Point",
				"coordinates": [
					2.353176840261815,
					48.82783877739521
				]
			},
			"properties": {
				"Nom": "ECOLE ELEMENTAIRE",
				"objectid": 382,
				"Adresse": "38 RUE VANDREZANNE",
				"geo_point_2d": [
					48.82783877739521,
					2.353176840261815
				],
				"cp": "75013",
				"num_bv": "58",
				"id_bv": "13-58"
			}
		},
		{
			"type": "Feature",
			"geometry": {
				"type": "Point",
				"coordinates": [
					2.373003857368423,
					48.83027039536933
				]
			},
			"properties": {
				"Nom": "ECOLE MATERNELLE",
				"objectid": 351,
				"Adresse": "15 RUE DE DOMREMY",
				"geo_point_2d": [
					48.83027039536933,
					2.373003857368423
				],
				"cp": "75013",
				"num_bv": "27",
				"id_bv": "13-27"
			}
		},
		{
			"type": "Feature",
			"geometry": {
				"type": "Point",
				"coordinates": [
					2.3670916782129012,
					48.83262567919513
				]
			},
			"properties": {
				"Nom": "ECOLE ELEMENTAIRE",
				"objectid": 356,
				"Adresse": "60 RUE DUNOIS",
				"geo_point_2d": [
					48.83262567919513,
					2.3670916782129012
				],
				"cp": "75013",
				"num_bv": "32",
				"id_bv": "13-32"
			}
		},
		{
			"type": "Feature",
			"geometry": {
				"type": "Point",
				"coordinates": [
					2.344618522106466,
					48.8269319304423
				]
			},
			"properties": {
				"Nom": "ECOLE ELEMENTAIRE",
				"objectid": 377,
				"Adresse": "16 RUE WURTZ",
				"geo_point_2d": [
					48.8269319304423,
					2.344618522106466
				],
				"cp": "75013",
				"num_bv": "53",
				"id_bv": "13-53"
			}
		},
		{
			"type": "Feature",
			"geometry": {
				"type": "Point",
				"coordinates": [
					2.351305566352578,
					48.8222309933788
				]
			},
			"properties": {
				"Nom": "ECOLE MATERNELLE",
				"objectid": 369,
				"Adresse": "8 RUE KUSS",
				"geo_point_2d": [
					48.8222309933788,
					2.351305566352578
				],
				"cp": "75013",
				"num_bv": "45",
				"id_bv": "13-45"
			}
		},
		{
			"type": "Feature",
			"geometry": {
				"type": "Point",
				"coordinates": [
					2.393715340565479,
					48.837085560684336
				]
			},
			"properties": {
				"Nom": "ECOLE ELEMENTAIRE",
				"objectid": 282,
				"Adresse": "16 RUE DE LA BRECHE AUX LOUPS",
				"geo_point_2d": [
					48.837085560684336,
					2.393715340565479
				],
				"cp": "75012",
				"num_bv": "22",
				"id_bv": "12-22"
			}
		},
		{
			"type": "Feature",
			"geometry": {
				"type": "Point",
				"coordinates": [
					2.394535776510291,
					48.837787855724116
				]
			},
			"properties": {
				"Nom": "ECOLE MATERNELLE",
				"objectid": 280,
				"Adresse": "28 RUE DE LA BRECHE AUX LOUPS",
				"geo_point_2d": [
					48.837787855724116,
					2.394535776510291
				],
				"cp": "75012",
				"num_bv": "20",
				"id_bv": "12-20"
			}
		},
		{
			"type": "Feature",
			"geometry": {
				"type": "Point",
				"coordinates": [
					2.372559645008332,
					48.85122356231539
				]
			},
			"properties": {
				"Nom": "L.P. THEOPHILE GAUTIER",
				"objectid": 322,
				"Adresse": "49 RUE DE CHARENTON",
				"geo_point_2d": [
					48.85122356231539,
					2.372559645008332
				],
				"cp": "75012",
				"num_bv": "62",
				"id_bv": "12-62"
			}
		},
		{
			"type": "Feature",
			"geometry": {
				"type": "Point",
				"coordinates": [
					2.397131780790823,
					48.8355194361598
				]
			},
			"properties": {
				"Nom": "ECOLE ELEMENTAIRE",
				"objectid": 285,
				"Adresse": "52 RUE DE WATTIGNIES",
				"geo_point_2d": [
					48.8355194361598,
					2.397131780790823
				],
				"cp": "75012",
				"num_bv": "25",
				"id_bv": "12-25"
			}
		},
		{
			"type": "Feature",
			"geometry": {
				"type": "Point",
				"coordinates": [
					2.397131780790823,
					48.8355194361598
				]
			},
			"properties": {
				"Nom": "ECOLE ELEMENTAIRE",
				"objectid": 287,
				"Adresse": "52 RUE DE WATTIGNIES",
				"geo_point_2d": [
					48.8355194361598,
					2.397131780790823
				],
				"cp": "75012",
				"num_bv": "27",
				"id_bv": "12-27"
			}
		},
		{
			"type": "Feature",
			"geometry": {
				"type": "Point",
				"coordinates": [
					2.396622588122308,
					48.843591411940835
				]
			},
			"properties": {
				"Nom": "ECOLE ELEMENTAIRE A",
				"objectid": 276,
				"Adresse": "56 RUE DE PICPUS",
				"geo_point_2d": [
					48.843591411940835,
					2.396622588122308
				],
				"cp": "75012",
				"num_bv": "16",
				"id_bv": "12-16"
			}
		},
		{
			"type": "Feature",
			"geometry": {
				"type": "Point",
				"coordinates": [
					2.363135199592029,
					48.82577113005029
				]
			},
			"properties": {
				"Nom": "ECOLE ELEMENTAIRE B",
				"objectid": 341,
				"Adresse": "55 RUE BAUDRICOURT",
				"geo_point_2d": [
					48.82577113005029,
					2.363135199592029
				],
				"cp": "75013",
				"num_bv": "17",
				"id_bv": "13-17"
			}
		},
		{
			"type": "Feature",
			"geometry": {
				"type": "Point",
				"coordinates": [
					2.380346980225811,
					48.84470029804975
				]
			},
			"properties": {
				"Nom": "ECOLE MATERNELLE",
				"objectid": 310,
				"Adresse": "70 AVENUE DAUMESNIL",
				"geo_point_2d": [
					48.84470029804975,
					2.380346980225811
				],
				"cp": "75012",
				"num_bv": "50",
				"id_bv": "12-50"
			}
		},
		{
			"type": "Feature",
			"geometry": {
				"type": "Point",
				"coordinates": [
					2.36143129235871,
					48.83581663514189
				]
			},
			"properties": {
				"Nom": "ECOLE ELEMENTAIRE A",
				"objectid": 329,
				"Adresse": "42 RUE JENNER",
				"geo_point_2d": [
					48.83581663514189,
					2.36143129235871
				],
				"cp": "75013",
				"num_bv": "5",
				"id_bv": "13-5"
			}
		},
		{
			"type": "Feature",
			"geometry": {
				"type": "Point",
				"coordinates": [
					2.35695080961766,
					48.83254787058288
				]
			},
			"properties": {
				"Nom": "ECOLE ELEMENTAIRE",
				"objectid": 326,
				"Adresse": "13 RUE FAGON",
				"geo_point_2d": [
					48.83254787058288,
					2.35695080961766
				],
				"cp": "75013",
				"num_bv": "2",
				"id_bv": "13-2"
			}
		},
		{
			"type": "Feature",
			"geometry": {
				"type": "Point",
				"coordinates": [
					2.382761767398555,
					48.863557049485166
				]
			},
			"properties": {
				"Nom": "ECOLE ELEMENTAIRE",
				"objectid": 243,
				"Adresse": "100 AVENUE DE LA REPUBLIQUE",
				"geo_point_2d": [
					48.863557049485166,
					2.382761767398555
				],
				"cp": "75011",
				"num_bv": "38",
				"id_bv": "11-38"
			}
		},
		{
			"type": "Feature",
			"geometry": {
				"type": "Point",
				"coordinates": [
					2.382761767398555,
					48.863557049485166
				]
			},
			"properties": {
				"Nom": "ECOLE ELEMENTAIRE",
				"objectid": 242,
				"Adresse": "100 AVENUE DE LA REPUBLIQUE",
				"geo_point_2d": [
					48.863557049485166,
					2.382761767398555
				],
				"cp": "75011",
				"num_bv": "37",
				"id_bv": "11-37"
			}
		},
		{
			"type": "Feature",
			"geometry": {
				"type": "Point",
				"coordinates": [
					2.382373622717376,
					48.863630582813244
				]
			},
			"properties": {
				"Nom": "ECOLE ELEMENTAIRE",
				"objectid": 240,
				"Adresse": "98 AVENUE DE LA REPUBLIQUE",
				"geo_point_2d": [
					48.863630582813244,
					2.382373622717376
				],
				"cp": "75011",
				"num_bv": "35",
				"id_bv": "11-35"
			}
		},
		{
			"type": "Feature",
			"geometry": {
				"type": "Point",
				"coordinates": [
					2.377434559130331,
					48.87127462687108
				]
			},
			"properties": {
				"Nom": "ECOLE ELEMENTAIRE",
				"objectid": 236,
				"Adresse": "77 BOULEVARD DE BELLEVILLE",
				"geo_point_2d": [
					48.87127462687108,
					2.377434559130331
				],
				"cp": "75011",
				"num_bv": "31",
				"id_bv": "11-31"
			}
		},
		{
			"type": "Feature",
			"geometry": {
				"type": "Point",
				"coordinates": [
					2.372385964210152,
					48.86793495391689
				]
			},
			"properties": {
				"Nom": "ECOLE MATERNELLE",
				"objectid": 228,
				"Adresse": "111 AVENUE PARMENTIER",
				"geo_point_2d": [
					48.86793495391689,
					2.372385964210152
				],
				"cp": "75011",
				"num_bv": "23",
				"id_bv": "11-23"
			}
		},
		{
			"type": "Feature",
			"geometry": {
				"type": "Point",
				"coordinates": [
					2.388583675795725,
					48.84576439179544
				]
			},
			"properties": {
				"Nom": "ECOLE ELEMENTAIRE A",
				"objectid": 270,
				"Adresse": "57 RUE DE REUILLY",
				"geo_point_2d": [
					48.84576439179544,
					2.388583675795725
				],
				"cp": "75012",
				"num_bv": "10",
				"id_bv": "12-10"
			}
		},
		{
			"type": "Feature",
			"geometry": {
				"type": "Point",
				"coordinates": [
					2.396622588122308,
					48.843591411940835
				]
			},
			"properties": {
				"Nom": "ECOLE ELEMENTAIRE B",
				"objectid": 268,
				"Adresse": "56 RUE DE PICPUS",
				"geo_point_2d": [
					48.843591411940835,
					2.396622588122308
				],
				"cp": "75012",
				"num_bv": "8",
				"id_bv": "12-8"
			}
		},
		{
			"type": "Feature",
			"geometry": {
				"type": "Point",
				"coordinates": [
					2.386425029553647,
					48.8479589297468
				]
			},
			"properties": {
				"Nom": "ECOLE ELEMENTAIRE",
				"objectid": 272,
				"Adresse": "27 RUE DE REUILLY",
				"geo_point_2d": [
					48.8479589297468,
					2.386425029553647
				],
				"cp": "75012",
				"num_bv": "12",
				"id_bv": "12-12"
			}
		},
		{
			"type": "Feature",
			"geometry": {
				"type": "Point",
				"coordinates": [
					2.382979544859996,
					48.8607505468527
				]
			},
			"properties": {
				"Nom": "ECOLE ELEMENTAIRE",
				"objectid": 244,
				"Adresse": "29 RUE SERVAN",
				"geo_point_2d": [
					48.8607505468527,
					2.382979544859996
				],
				"cp": "75011",
				"num_bv": "39",
				"id_bv": "11-39"
			}
		},
		{
			"type": "Feature",
			"geometry": {
				"type": "Point",
				"coordinates": [
					2.386507361001294,
					48.851641287386755
				]
			},
			"properties": {
				"Nom": "ECOLE ELEMENTAIRE",
				"objectid": 258,
				"Adresse": "16 RUE TITON",
				"geo_point_2d": [
					48.851641287386755,
					2.386507361001294
				],
				"cp": "75011",
				"num_bv": "53",
				"id_bv": "11-53"
			}
		},
		{
			"type": "Feature",
			"geometry": {
				"type": "Point",
				"coordinates": [
					2.297107581517179,
					48.85093752713476
				]
			},
			"properties": {
				"Nom": "ECOLE MATERNELLE",
				"objectid": 470,
				"Adresse": "3 PLACE DU CARDINAL AMETTE",
				"geo_point_2d": [
					48.85093752713476,
					2.297107581517179
				],
				"cp": "75015",
				"num_bv": "18",
				"id_bv": "15-18"
			}
		},
		{
			"type": "Feature",
			"geometry": {
				"type": "Point",
				"coordinates": [
					2.316087899171889,
					48.8439135155313
				]
			},
			"properties": {
				"Nom": "ECOLE MATERNELLE",
				"objectid": 486,
				"Adresse": "149 RUE DE VAUGIRARD",
				"geo_point_2d": [
					48.8439135155313,
					2.316087899171889
				],
				"cp": "75015",
				"num_bv": "34",
				"id_bv": "15-34"
			}
		},
		{
			"type": "Feature",
			"geometry": {
				"type": "Point",
				"coordinates": [
					2.304099547320272,
					48.831062532533714
				]
			},
			"properties": {
				"Nom": "ECOLE ELEMENTAIRE",
				"objectid": 497,
				"Adresse": "15 RUE DE CHERBOURG",
				"geo_point_2d": [
					48.831062532533714,
					2.304099547320272
				],
				"cp": "75015",
				"num_bv": "45",
				"id_bv": "15-45"
			}
		},
		{
			"type": "Feature",
			"geometry": {
				"type": "Point",
				"coordinates": [
					2.302347271007296,
					48.84538458978615
				]
			},
			"properties": {
				"Nom": "ECOLE ELEMENTAIRE",
				"objectid": 477,
				"Adresse": "33 bis RUE MIOLLIS",
				"geo_point_2d": [
					48.84538458978615,
					2.302347271007296
				],
				"cp": "75015",
				"num_bv": "25",
				"id_bv": "15-25"
			}
		},
		{
			"type": "Feature",
			"geometry": {
				"type": "Point",
				"coordinates": [
					2.287397384473942,
					48.85042162079514
				]
			},
			"properties": {
				"Nom": "ECOLE ELEMENTAIRE",
				"objectid": 466,
				"Adresse": "25 RUE ROUELLE",
				"geo_point_2d": [
					48.85042162079514,
					2.287397384473942
				],
				"cp": "75015",
				"num_bv": "14",
				"id_bv": "15-14"
			}
		},
		{
			"type": "Feature",
			"geometry": {
				"type": "Point",
				"coordinates": [
					2.365403861907055,
					48.85008325936047
				]
			},
			"properties": {
				"Nom": "MAIRIE DE PARIS - DIRECTION DES AFFAIRES SCOLAIRES",
				"objectid": 43,
				"Adresse": "3 RUE DE L ARSENAL",
				"geo_point_2d": [
					48.85008325936047,
					2.365403861907055
				],
				"cp": "75004",
				"num_bv": "8",
				"id_bv": "4-8"
			}
		},
		{
			"type": "Feature",
			"geometry": {
				"type": "Point",
				"coordinates": [
					2.3562783875392572,
					48.855059687213114
				]
			},
			"properties": {
				"Nom": "COLLGE FRANOIS COUPERIN",
				"objectid": 49,
				"Adresse": "2 ALLEE DES JUSTES DE FRANCE",
				"geo_point_2d": [
					48.855059687213114,
					2.3562783875392572
				],
				"cp": "75004",
				"num_bv": "14",
				"id_bv": "4-14"
			}
		},
		{
			"type": "Feature",
			"geometry": {
				"type": "Point",
				"coordinates": [
					2.36015618521516,
					48.860411910427324
				]
			},
			"properties": {
				"Nom": "ECOLE ELEMENTAIRE",
				"objectid": 25,
				"Adresse": "10 bis RUE DES QUATRE FILS",
				"geo_point_2d": [
					48.860411910427324,
					2.36015618521516
				],
				"cp": "75003",
				"num_bv": "5",
				"id_bv": "3-5"
			}
		},
		{
			"type": "Feature",
			"geometry": {
				"type": "Point",
				"coordinates": [
					2.341305616377273,
					48.85327368270844
				]
			},
			"properties": {
				"Nom": "ECOLE MATERNELLE",
				"objectid": 80,
				"Adresse": "39 RUE SAINT ANDRE DES ARTS",
				"geo_point_2d": [
					48.85327368270844,
					2.341305616377273
				],
				"cp": "75006",
				"num_bv": "6",
				"id_bv": "6-6"
			}
		},
		{
			"type": "Feature",
			"geometry": {
				"type": "Point",
				"coordinates": [
					2.344580878581956,
					48.84619171795158
				]
			},
			"properties": {
				"Nom": "MAIRIE D'ARRONDISSEMENT",
				"objectid": 50,
				"Adresse": "21 PLACE DU PANTHEON",
				"geo_point_2d": [
					48.84619171795158,
					2.344580878581956
				],
				"cp": "75005",
				"num_bv": "1",
				"id_bv": "5-1"
			}
		},
		{
			"type": "Feature",
			"geometry": {
				"type": "Point",
				"coordinates": [
					2.347603594613063,
					48.841970806812675
				]
			},
			"properties": {
				"Nom": "ECOLE ELEMENTAIRE",
				"objectid": 55,
				"Adresse": "2 RUE PIERRE BROSSOLETTE",
				"geo_point_2d": [
					48.841970806812675,
					2.347603594613063
				],
				"cp": "75005",
				"num_bv": "6",
				"id_bv": "5-6"
			}
		},
		{
			"type": "Feature",
			"geometry": {
				"type": "Point",
				"coordinates": [
					2.352277926963504,
					48.848592943281496
				]
			},
			"properties": {
				"Nom": "ECOLE MATERNELLE",
				"objectid": 70,
				"Adresse": "27 RUE DE POISSY",
				"geo_point_2d": [
					48.848592943281496,
					2.352277926963504
				],
				"cp": "75005",
				"num_bv": "21",
				"id_bv": "5-21"
			}
		},
		{
			"type": "Feature",
			"geometry": {
				"type": "Point",
				"coordinates": [
					2.3358956174491,
					48.84421471684605
				]
			},
			"properties": {
				"Nom": "LYCEE MONTAIGNE",
				"objectid": 84,
				"Adresse": "15 RUE AUGUSTE COMTE",
				"geo_point_2d": [
					48.84421471684605,
					2.3358956174491
				],
				"cp": "75006",
				"num_bv": "10",
				"id_bv": "6-10"
			}
		},
		{
			"type": "Feature",
			"geometry": {
				"type": "Point",
				"coordinates": [
					2.35249030619384,
					48.85911493534956
				]
			},
			"properties": {
				"Nom": "ECOLE ELEMENTAIRE",
				"objectid": 48,
				"Adresse": "16 RUE DU RENARD",
				"geo_point_2d": [
					48.85911493534956,
					2.35249030619384
				],
				"cp": "75004",
				"num_bv": "13",
				"id_bv": "4-13"
			}
		},
		{
			"type": "Feature",
			"geometry": {
				"type": "Point",
				"coordinates": [
					2.349802383835784,
					48.867408636323994
				]
			},
			"properties": {
				"Nom": "ECOLE ELEMENTAIRE",
				"objectid": 19,
				"Adresse": "44 RUE DUSSOUBS",
				"geo_point_2d": [
					48.867408636323994,
					2.349802383835784
				],
				"cp": "75002",
				"num_bv": "9",
				"id_bv": "2-9"
			}
		},
		{
			"type": "Feature",
			"geometry": {
				"type": "Point",
				"coordinates": [
					2.286857796984684,
					48.84829225670924
				]
			},
			"properties": {
				"Nom": "LYCEE D ENSEIGNEMENT PROFESSIONNEL",
				"objectid": 463,
				"Adresse": "62 RUE SAINT CHARLES",
				"geo_point_2d": [
					48.84829225670924,
					2.286857796984684
				],
				"cp": "75015",
				"num_bv": "11",
				"id_bv": "15-11"
			}
		},
		{
			"type": "Feature",
			"geometry": {
				"type": "Point",
				"coordinates": [
					2.336936361686134,
					48.83176558811381
				]
			},
			"properties": {
				"Nom": "LYCEE TECHNOLOGIQUE EMILE DUBOIS",
				"objectid": 429,
				"Adresse": "14 RUE EMILE DUBOIS",
				"geo_point_2d": [
					48.83176558811381,
					2.336936361686134
				],
				"cp": "75014",
				"num_bv": "34",
				"id_bv": "14-34"
			}
		},
		{
			"type": "Feature",
			"geometry": {
				"type": "Point",
				"coordinates": [
					2.312164949668678,
					48.82475730461192
				]
			},
			"properties": {
				"Nom": "ECOLE MATERNELLE",
				"objectid": 450,
				"Adresse": "7 AVENUE MAURICE D OCAGNE",
				"geo_point_2d": [
					48.82475730461192,
					2.312164949668678
				],
				"cp": "75014",
				"num_bv": "55",
				"id_bv": "14-55"
			}
		},
		{
			"type": "Feature",
			"geometry": {
				"type": "Point",
				"coordinates": [
					2.307286936185581,
					48.82814157438208
				]
			},
			"properties": {
				"Nom": "ECOLE ELEMENTAIRE",
				"objectid": 448,
				"Adresse": "5 SQUARE ALAIN FOURNIER",
				"geo_point_2d": [
					48.82814157438208,
					2.307286936185581
				],
				"cp": "75014",
				"num_bv": "53",
				"id_bv": "14-53"
			}
		},
		{
			"type": "Feature",
			"geometry": {
				"type": "Point",
				"coordinates": [
					2.310572150181697,
					48.83060046924089
				]
			},
			"properties": {
				"Nom": "ECOLE MATERNELLE",
				"objectid": 446,
				"Adresse": "2 RUE MAURICE ROUVIER",
				"geo_point_2d": [
					48.83060046924089,
					2.310572150181697
				],
				"cp": "75014",
				"num_bv": "51",
				"id_bv": "14-51"
			}
		},
		{
			"type": "Feature",
			"geometry": {
				"type": "Point",
				"coordinates": [
					2.324088998891613,
					48.82519842089605
				]
			},
			"properties": {
				"Nom": "LYCEE LUCAS DE NEHOU",
				"objectid": 438,
				"Adresse": "19 RUE FRIANT",
				"geo_point_2d": [
					48.82519842089605,
					2.324088998891613
				],
				"cp": "75014",
				"num_bv": "43",
				"id_bv": "14-43"
			}
		},
		{
			"type": "Feature",
			"geometry": {
				"type": "Point",
				"coordinates": [
					2.333987442275152,
					48.82770065063449
				]
			},
			"properties": {
				"Nom": "ECOLE ELEMENTAIRE",
				"objectid": 431,
				"Adresse": "12 RUE D ALESIA",
				"geo_point_2d": [
					48.82770065063449,
					2.333987442275152
				],
				"cp": "75014",
				"num_bv": "36",
				"id_bv": "14-36"
			}
		},
		{
			"type": "Feature",
			"geometry": {
				"type": "Point",
				"coordinates": [
					2.292248171803469,
					48.848405612953336
				]
			},
			"properties": {
				"Nom": "ECOLE ELEMENTAIRE",
				"objectid": 465,
				"Adresse": "12 RUE FONDARY",
				"geo_point_2d": [
					48.848405612953336,
					2.292248171803469
				],
				"cp": "75015",
				"num_bv": "13",
				"id_bv": "15-13"
			}
		},
		{
			"type": "Feature",
			"geometry": {
				"type": "Point",
				"coordinates": [
					2.32680886331009,
					48.84159830244622
				]
			},
			"properties": {
				"Nom": "ECOLE ELEMENTAIRE",
				"objectid": 427,
				"Adresse": "24 RUE DELAMBRE",
				"geo_point_2d": [
					48.84159830244622,
					2.32680886331009
				],
				"cp": "75014",
				"num_bv": "32",
				"id_bv": "14-32"
			}
		},
		{
			"type": "Feature",
			"geometry": {
				"type": "Point",
				"coordinates": [
					2.328583687271062,
					48.840718048749714
				]
			},
			"properties": {
				"Nom": "LYCEE PAUL BERT",
				"objectid": 426,
				"Adresse": "9 RUE HUYGHENS",
				"geo_point_2d": [
					48.840718048749714,
					2.328583687271062
				],
				"cp": "75014",
				"num_bv": "31",
				"id_bv": "14-31"
			}
		},
		{
			"type": "Feature",
			"geometry": {
				"type": "Point",
				"coordinates": [
					2.307334003961107,
					48.86106042067828
				]
			},
			"properties": {
				"Nom": "CONSERVATOIRE MUNICIPAL DU VIIEME",
				"objectid": 116,
				"Adresse": "135 bis RUE DE L UNIVERSITE",
				"geo_point_2d": [
					48.86106042067828,
					2.307334003961107
				],
				"cp": "75007",
				"num_bv": "20",
				"id_bv": "7-20"
			}
		},
		{
			"type": "Feature",
			"geometry": {
				"type": "Point",
				"coordinates": [
					2.327433627476335,
					48.84420332768223
				]
			},
			"properties": {
				"Nom": "ECOLE DES PSYCHOLOGUES PRATICIENS",
				"objectid": 92,
				"Adresse": "23 RUE DU MONTPARNASSE",
				"geo_point_2d": [
					48.84420332768223,
					2.327433627476335
				],
				"cp": "75006",
				"num_bv": "18",
				"id_bv": "6-18"
			}
		},
		{
			"type": "Feature",
			"geometry": {
				"type": "Point",
				"coordinates": [
					2.320336219520768,
					48.87113718823996
				]
			},
			"properties": {
				"Nom": "ECOLE ELEMENTAIRE",
				"objectid": 131,
				"Adresse": "20 RUE DE SURENE",
				"geo_point_2d": [
					48.87113718823996,
					2.320336219520768
				],
				"cp": "75008",
				"num_bv": "10",
				"id_bv": "8-10"
			}
		},
		{
			"type": "Feature",
			"geometry": {
				"type": "Point",
				"coordinates": [
					2.331947933882063,
					48.85051072719964
				]
			},
			"properties": {
				"Nom": "MAIRIE D'ARRONDISSEMENT",
				"objectid": 85,
				"Adresse": "19 RUE MADAME",
				"geo_point_2d": [
					48.85051072719964,
					2.331947933882063
				],
				"cp": "75006",
				"num_bv": "11",
				"id_bv": "6-11"
			}
		},
		{
			"type": "Feature",
			"geometry": {
				"type": "Point",
				"coordinates": [
					2.340480602036985,
					48.872591611353904
				]
			},
			"properties": {
				"Nom": "MAIRIE D'ARRONDISSEMENT",
				"objectid": 142,
				"Adresse": "6 RUE DROUOT",
				"geo_point_2d": [
					48.872591611353904,
					2.340480602036985
				],
				"cp": "75009",
				"num_bv": "3",
				"id_bv": "9-3"
			}
		},
		{
			"type": "Feature",
			"geometry": {
				"type": "Point",
				"coordinates": [
					2.328300828499863,
					48.8747129395615
				]
			},
			"properties": {
				"Nom": "LYCEE CONDORCET",
				"objectid": 146,
				"Adresse": "65 RUE DE CAUMARTIN",
				"geo_point_2d": [
					48.8747129395615,
					2.328300828499863
				],
				"cp": "75009",
				"num_bv": "7",
				"id_bv": "9-7"
			}
		},
		{
			"type": "Feature",
			"geometry": {
				"type": "Point",
				"coordinates": [
					2.305433795829927,
					48.85846458527289
				]
			},
			"properties": {
				"Nom": "COLLEGE JULES ROMAINS",
				"objectid": 114,
				"Adresse": "6 RUE CLER",
				"geo_point_2d": [
					48.85846458527289,
					2.305433795829927
				],
				"cp": "75007",
				"num_bv": "18",
				"id_bv": "7-18"
			}
		},
		{
			"type": "Feature",
			"geometry": {
				"type": "Point",
				"coordinates": [
					2.305433795829927,
					48.85846458527289
				]
			},
			"properties": {
				"Nom": "COLLEGE JULES ROMAINS",
				"objectid": 115,
				"Adresse": "6 RUE CLER",
				"geo_point_2d": [
					48.85846458527289,
					2.305433795829927
				],
				"cp": "75007",
				"num_bv": "19",
				"id_bv": "7-19"
			}
		},
		{
			"type": "Feature",
			"geometry": {
				"type": "Point",
				"coordinates": [
					2.331603605181276,
					48.848942265206475
				]
			},
			"properties": {
				"Nom": "ECOLE ELEMENTAIRE",
				"objectid": 86,
				"Adresse": "42 RUE MADAME",
				"geo_point_2d": [
					48.848942265206475,
					2.331603605181276
				],
				"cp": "75006",
				"num_bv": "12",
				"id_bv": "6-12"
			}
		},
		{
			"type": "Feature",
			"geometry": {
				"type": "Point",
				"coordinates": [
					2.325549477316556,
					48.85217391522867
				]
			},
			"properties": {
				"Nom": "ECOLE POLYVALENTE",
				"objectid": 104,
				"Adresse": "8 RUE CHOMEL",
				"geo_point_2d": [
					48.85217391522867,
					2.325549477316556
				],
				"cp": "75007",
				"num_bv": "8",
				"id_bv": "7-8"
			}
		},
		{
			"type": "Feature",
			"geometry": {
				"type": "Point",
				"coordinates": [
					2.32265655037813,
					48.82725293257814
				]
			},
			"properties": {
				"Nom": "ECOLE ELEMENTAIRE",
				"objectid": 406,
				"Adresse": "20 RUE ANTOINE CHANTIN",
				"geo_point_2d": [
					48.82725293257814,
					2.32265655037813
				],
				"cp": "75014",
				"num_bv": "11",
				"id_bv": "14-11"
			}
		},
		{
			"type": "Feature",
			"geometry": {
				"type": "Point",
				"coordinates": [
					2.325909408842611,
					48.82801241661346
				]
			},
			"properties": {
				"Nom": "COLLEGE ALPHONSE DAUDET",
				"objectid": 403,
				"Adresse": "93 RUE D ALESIA",
				"geo_point_2d": [
					48.82801241661346,
					2.325909408842611
				],
				"cp": "75014",
				"num_bv": "8",
				"id_bv": "14-8"
			}
		},
		{
			"type": "Feature",
			"geometry": {
				"type": "Point",
				"coordinates": [
					2.335684628649772,
					48.834359894879086
				]
			},
			"properties": {
				"Nom": "ECOLE ELEMENTAIRE",
				"objectid": 421,
				"Adresse": "87 BOULEVARD ARAGO",
				"geo_point_2d": [
					48.834359894879086,
					2.335684628649772
				],
				"cp": "75014",
				"num_bv": "26",
				"id_bv": "14-26"
			}
		},
		{
			"type": "Feature",
			"geometry": {
				"type": "Point",
				"coordinates": [
					2.347458518773279,
					48.83560045373689
				]
			},
			"properties": {
				"Nom": "ECOLE ELEMENTAIRE",
				"objectid": 390,
				"Adresse": "30 BOULEVARD ARAGO",
				"geo_point_2d": [
					48.83560045373689,
					2.347458518773279
				],
				"cp": "75013",
				"num_bv": "66",
				"id_bv": "13-66"
			}
		},
		{
			"type": "Feature",
			"geometry": {
				"type": "Point",
				"coordinates": [
					2.353153714391738,
					48.82785931993577
				]
			},
			"properties": {
				"Nom": "ECOLE MATERNELLE",
				"objectid": 383,
				"Adresse": "40 RUE VANDREZANNE",
				"geo_point_2d": [
					48.82785931993577,
					2.353153714391738
				],
				"cp": "75013",
				"num_bv": "59",
				"id_bv": "13-59"
			}
		},
		{
			"type": "Feature",
			"geometry": {
				"type": "Point",
				"coordinates": [
					2.328319946811308,
					48.827730327352015
				]
			},
			"properties": {
				"Nom": "COLLEGE JEAN MOULIN",
				"objectid": 400,
				"Adresse": "75 RUE D ALESIA",
				"geo_point_2d": [
					48.827730327352015,
					2.328319946811308
				],
				"cp": "75014",
				"num_bv": "5",
				"id_bv": "14-5"
			}
		},
		{
			"type": "Feature",
			"geometry": {
				"type": "Point",
				"coordinates": [
					2.328319946811308,
					48.827730327352015
				]
			},
			"properties": {
				"Nom": "COLLEGE JEAN MOULIN",
				"objectid": 401,
				"Adresse": "75 RUE D ALESIA",
				"geo_point_2d": [
					48.827730327352015,
					2.328319946811308
				],
				"cp": "75014",
				"num_bv": "6",
				"id_bv": "14-6"
			}
		},
		{
			"type": "Feature",
			"geometry": {
				"type": "Point",
				"coordinates": [
					2.346494701507424,
					48.831548196358746
				]
			},
			"properties": {
				"Nom": "ECOLE ELEMENTAIRE",
				"objectid": 386,
				"Adresse": "13 RUE VULPIAN",
				"geo_point_2d": [
					48.831548196358746,
					2.346494701507424
				],
				"cp": "75013",
				"num_bv": "62",
				"id_bv": "13-62"
			}
		},
		{
			"type": "Feature",
			"geometry": {
				"type": "Point",
				"coordinates": [
					2.322846470930541,
					48.835224830826824
				]
			},
			"properties": {
				"Nom": "ECOLE ELEMENTAIRE",
				"objectid": 411,
				"Adresse": "5 RUE ASSELINE",
				"geo_point_2d": [
					48.835224830826824,
					2.322846470930541
				],
				"cp": "75014",
				"num_bv": "16",
				"id_bv": "14-16"
			}
		},
		{
			"type": "Feature",
			"geometry": {
				"type": "Point",
				"coordinates": [
					2.321205472921632,
					48.83765106936367
				]
			},
			"properties": {
				"Nom": "ECOLE ELEMENTAIRE",
				"objectid": 409,
				"Adresse": "12 RUE JEAN ZAY",
				"geo_point_2d": [
					48.83765106936367,
					2.321205472921632
				],
				"cp": "75014",
				"num_bv": "14",
				"id_bv": "14-14"
			}
		},
		{
			"type": "Feature",
			"geometry": {
				"type": "Point",
				"coordinates": [
					2.301234438320686,
					48.82730183276835
				]
			},
			"properties": {
				"Nom": "ECOLE MATERNELLE",
				"objectid": 501,
				"Adresse": "5 AVENUE DE LA PORTE BRANCION",
				"geo_point_2d": [
					48.82730183276835,
					2.301234438320686
				],
				"cp": "75015",
				"num_bv": "49",
				"id_bv": "15-49"
			}
		},
		{
			"type": "Feature",
			"geometry": {
				"type": "Point",
				"coordinates": [
					2.278590248295217,
					48.83885957431486
				]
			},
			"properties": {
				"Nom": "COLLEGE ANDRE CITROEN",
				"objectid": 530,
				"Adresse": "208 RUE SAINT CHARLES",
				"geo_point_2d": [
					48.83885957431486,
					2.278590248295217
				],
				"cp": "75015",
				"num_bv": "78",
				"id_bv": "15-78"
			}
		},
		{
			"type": "Feature",
			"geometry": {
				"type": "Point",
				"coordinates": [
					2.295528515374476,
					48.83199719001002
				]
			},
			"properties": {
				"Nom": "ECOLE MATERNELLE",
				"objectid": 505,
				"Adresse": "20 RUE DE LA SAIDA",
				"geo_point_2d": [
					48.83199719001002,
					2.295528515374476
				],
				"cp": "75015",
				"num_bv": "53",
				"id_bv": "15-53"
			}
		},
		{
			"type": "Feature",
			"geometry": {
				"type": "Point",
				"coordinates": [
					2.366255676496674,
					48.85480003448505
				]
			},
			"properties": {
				"Nom": "LYCEE PROFESSIONNEL THEOPHILE GAUTIER",
				"objectid": 41,
				"Adresse": "6 bis PLACE DES VOSGES",
				"geo_point_2d": [
					48.85480003448505,
					2.366255676496674
				],
				"cp": "75004",
				"num_bv": "6",
				"id_bv": "4-6"
			}
		},
		{
			"type": "Feature",
			"geometry": {
				"type": "Point",
				"coordinates": [
					2.361531961565591,
					48.863992026300004
				]
			},
			"properties": {
				"Nom": "MAIRIE D'ARRONDISSEMENT",
				"objectid": 21,
				"Adresse": "2 RUE EUGENE SPULLER",
				"geo_point_2d": [
					48.863992026300004,
					2.361531961565591
				],
				"cp": "75003",
				"num_bv": "1",
				"id_bv": "3-1"
			}
		},
		{
			"type": "Feature",
			"geometry": {
				"type": "Point",
				"coordinates": [
					2.341354361031483,
					48.84386905152093
				]
			},
			"properties": {
				"Nom": "ECOLE ELEMENTAIRE",
				"objectid": 56,
				"Adresse": "250 bis RUE SAINT JACQUES",
				"geo_point_2d": [
					48.84386905152093,
					2.341354361031483
				],
				"cp": "75005",
				"num_bv": "7",
				"id_bv": "5-7"
			}
		},
		{
			"type": "Feature",
			"geometry": {
				"type": "Point",
				"coordinates": [
					2.364260380683142,
					48.865016990340045
				]
			},
			"properties": {
				"Nom": "COLLEGE PIERRE JEAN DE BERANGER",
				"objectid": 23,
				"Adresse": "5 RUE BERANGER",
				"geo_point_2d": [
					48.865016990340045,
					2.364260380683142
				],
				"cp": "75003",
				"num_bv": "3",
				"id_bv": "3-3"
			}
		},
		{
			"type": "Feature",
			"geometry": {
				"type": "Point",
				"coordinates": [
					2.363535204972251,
					48.861952648639274
				]
			},
			"properties": {
				"Nom": "LYCEE FRANCOIS TRUFFAUT",
				"objectid": 24,
				"Adresse": "28 RUE DEBELLEYME",
				"geo_point_2d": [
					48.861952648639274,
					2.363535204972251
				],
				"cp": "75003",
				"num_bv": "4",
				"id_bv": "3-4"
			}
		},
		{
			"type": "Feature",
			"geometry": {
				"type": "Point",
				"coordinates": [
					2.359861988140575,
					48.85318126047318
				]
			},
			"properties": {
				"Nom": "ECOLE ELEMENTAIRE",
				"objectid": 40,
				"Adresse": "22 RUE DE L AVE MARIA",
				"geo_point_2d": [
					48.85318126047318,
					2.359861988140575
				],
				"cp": "75004",
				"num_bv": "5",
				"id_bv": "4-5"
			}
		},
		{
			"type": "Feature",
			"geometry": {
				"type": "Point",
				"coordinates": [
					2.345587780412599,
					48.85120581857556
				]
			},
			"properties": {
				"Nom": "L.E.P. ABBE GREGOIRE",
				"objectid": 53,
				"Adresse": "30 RUE SAINT JACQUES",
				"geo_point_2d": [
					48.85120581857556,
					2.345587780412599
				],
				"cp": "75005",
				"num_bv": "4",
				"id_bv": "5-4"
			}
		},
		{
			"type": "Feature",
			"geometry": {
				"type": "Point",
				"coordinates": [
					2.342029948146027,
					48.85990426535164
				]
			},
			"properties": {
				"Nom": "ECOLE ELEMENTAIRE",
				"objectid": 2,
				"Adresse": "19 RUE DE L ARBRE SEC",
				"geo_point_2d": [
					48.85990426535164,
					2.342029948146027
				],
				"cp": "75001",
				"num_bv": "2",
				"id_bv": "1-2"
			}
		},
		{
			"type": "Feature",
			"geometry": {
				"type": "Point",
				"coordinates": [
					2.367207185296034,
					48.85506720406477
				]
			},
			"properties": {
				"Nom": "ECOLE ELEMENTAIRE",
				"objectid": 42,
				"Adresse": "21 RUE DES TOURNELLES",
				"geo_point_2d": [
					48.85506720406477,
					2.367207185296034
				],
				"cp": "75004",
				"num_bv": "7",
				"id_bv": "4-7"
			}
		},
		{
			"type": "Feature",
			"geometry": {
				"type": "Point",
				"coordinates": [
					2.2996263350616513,
					48.844233152319575
				]
			},
			"properties": {
				"Nom": "ECOLE ELEMENTAIRE",
				"objectid": 480,
				"Adresse": "35 RUE DE L AMIRAL ROUSSIN",
				"geo_point_2d": [
					48.844233152319575,
					2.2996263350616513
				],
				"cp": "75015",
				"num_bv": "28",
				"id_bv": "15-28"
			}
		},
		{
			"type": "Feature",
			"geometry": {
				"type": "Point",
				"coordinates": [
					2.297144684094639,
					48.85077532046619
				]
			},
			"properties": {
				"Nom": "ECOLE ELEMENTAIRE",
				"objectid": 474,
				"Adresse": "5 PLACE DU CARDINAL AMETTE",
				"geo_point_2d": [
					48.85077532046619,
					2.297144684094639
				],
				"cp": "75015",
				"num_bv": "22",
				"id_bv": "15-22"
			}
		},
		{
			"type": "Feature",
			"geometry": {
				"type": "Point",
				"coordinates": [
					2.297107581517179,
					48.85093752713476
				]
			},
			"properties": {
				"Nom": "ECOLE MATERNELLE",
				"objectid": 469,
				"Adresse": "3 PLACE DU CARDINAL AMETTE",
				"geo_point_2d": [
					48.85093752713476,
					2.297107581517179
				],
				"cp": "75015",
				"num_bv": "17",
				"id_bv": "15-17"
			}
		},
		{
			"type": "Feature",
			"geometry": {
				"type": "Point",
				"coordinates": [
					2.307286936185581,
					48.82814157438208
				]
			},
			"properties": {
				"Nom": "ECOLE ELEMENTAIRE",
				"objectid": 449,
				"Adresse": "5 SQUARE ALAIN FOURNIER",
				"geo_point_2d": [
					48.82814157438208,
					2.307286936185581
				],
				"cp": "75014",
				"num_bv": "54",
				"id_bv": "14-54"
			}
		},
		{
			"type": "Feature",
			"geometry": {
				"type": "Point",
				"coordinates": [
					2.296984030717407,
					48.84299080040883
				]
			},
			"properties": {
				"Nom": "LYCEE CAMILLE SEE",
				"objectid": 455,
				"Adresse": "11 RUE LEON LHERMITTE",
				"geo_point_2d": [
					48.84299080040883,
					2.296984030717407
				],
				"cp": "75015",
				"num_bv": "3",
				"id_bv": "15-3"
			}
		},
		{
			"type": "Feature",
			"geometry": {
				"type": "Point",
				"coordinates": [
					2.296984030717407,
					48.84299080040883
				]
			},
			"properties": {
				"Nom": "LYCEE CAMILLE SEE",
				"objectid": 457,
				"Adresse": "11 RUE LEON LHERMITTE",
				"geo_point_2d": [
					48.84299080040883,
					2.296984030717407
				],
				"cp": "75015",
				"num_bv": "5",
				"id_bv": "15-5"
			}
		},
		{
			"type": "Feature",
			"geometry": {
				"type": "Point",
				"coordinates": [
					2.339883419727535,
					48.82662419364208
				]
			},
			"properties": {
				"Nom": "ECOLE MATERNELLE",
				"objectid": 434,
				"Adresse": "3 bis RUE D ALESIA",
				"geo_point_2d": [
					48.82662419364208,
					2.339883419727535
				],
				"cp": "75014",
				"num_bv": "39",
				"id_bv": "14-39"
			}
		},
		{
			"type": "Feature",
			"geometry": {
				"type": "Point",
				"coordinates": [
					2.302347271007296,
					48.84538458978615
				]
			},
			"properties": {
				"Nom": "ECOLE ELEMENTAIRE",
				"objectid": 476,
				"Adresse": "33 bis RUE MIOLLIS",
				"geo_point_2d": [
					48.84538458978615,
					2.302347271007296
				],
				"cp": "75015",
				"num_bv": "24",
				"id_bv": "15-24"
			}
		},
		{
			"type": "Feature",
			"geometry": {
				"type": "Point",
				"coordinates": [
					2.299884387584236,
					48.84151574940015
				]
			},
			"properties": {
				"Nom": "MAIRIE D ARRONDISSEMENT",
				"objectid": 454,
				"Adresse": "31 RUE PECLET",
				"geo_point_2d": [
					48.84151574940015,
					2.299884387584236
				],
				"cp": "75015",
				"num_bv": "2",
				"id_bv": "15-2"
			}
		},
		{
			"type": "Feature",
			"geometry": {
				"type": "Point",
				"coordinates": [
					2.328399468978917,
					48.82600796260897
				]
			},
			"properties": {
				"Nom": "ECOLE MATERNELLE",
				"objectid": 437,
				"Adresse": "34 RUE SARRETTE",
				"geo_point_2d": [
					48.82600796260897,
					2.328399468978917
				],
				"cp": "75014",
				"num_bv": "42",
				"id_bv": "14-42"
			}
		},
		{
			"type": "Feature",
			"geometry": {
				"type": "Point",
				"coordinates": [
					2.346485243605406,
					48.83940177436118
				]
			},
			"properties": {
				"Nom": "ECOLE ELEMENTAIRE",
				"objectid": 60,
				"Adresse": "41 RUE DE L ARBALETE",
				"geo_point_2d": [
					48.83940177436118,
					2.346485243605406
				],
				"cp": "75005",
				"num_bv": "11",
				"id_bv": "5-11"
			}
		},
		{
			"type": "Feature",
			"geometry": {
				"type": "Point",
				"coordinates": [
					2.346485243605406,
					48.83940177436118
				]
			},
			"properties": {
				"Nom": "ECOLE ELEMENTAIRE",
				"objectid": 61,
				"Adresse": "41 RUE DE L ARBALETE",
				"geo_point_2d": [
					48.83940177436118,
					2.346485243605406
				],
				"cp": "75005",
				"num_bv": "12",
				"id_bv": "5-12"
			}
		},
		{
			"type": "Feature",
			"geometry": {
				"type": "Point",
				"coordinates": [
					2.3456618602660813,
					48.851335083469266
				]
			},
			"properties": {
				"Nom": "ECOLE ELEMENTAIRE",
				"objectid": 52,
				"Adresse": "28 RUE SAINT JACQUES",
				"geo_point_2d": [
					48.851335083469266,
					2.3456618602660813
				],
				"cp": "75005",
				"num_bv": "3",
				"id_bv": "5-3"
			}
		},
		{
			"type": "Feature",
			"geometry": {
				"type": "Point",
				"coordinates": [
					2.332706150639765,
					48.8667006841511
				]
			},
			"properties": {
				"Nom": "ECOLE MATERNELLE",
				"objectid": 9,
				"Adresse": "27 RUE DE LA SOURDIERE",
				"geo_point_2d": [
					48.8667006841511,
					2.332706150639765
				],
				"cp": "75001",
				"num_bv": "9",
				"id_bv": "1-9"
			}
		},
		{
			"type": "Feature",
			"geometry": {
				"type": "Point",
				"coordinates": [
					2.345506505207472,
					48.86656835749192
				]
			},
			"properties": {
				"Nom": "GYMNASE JEAN DAME",
				"objectid": 14,
				"Adresse": "17 RUE LEOPOLD BELLAN",
				"geo_point_2d": [
					48.86656835749192,
					2.345506505207472
				],
				"cp": "75002",
				"num_bv": "4",
				"id_bv": "2-4"
			}
		},
		{
			"type": "Feature",
			"geometry": {
				"type": "Point",
				"coordinates": [
					2.332611370078193,
					48.85053653589072
				]
			},
			"properties": {
				"Nom": "MAIRIE D'ARRONDISSEMENT",
				"objectid": 76,
				"Adresse": "78 RUE BONAPARTE",
				"geo_point_2d": [
					48.85053653589072,
					2.332611370078193
				],
				"cp": "75006",
				"num_bv": "2",
				"id_bv": "6-2"
			}
		},
		{
			"type": "Feature",
			"geometry": {
				"type": "Point",
				"coordinates": [
					2.356788112679094,
					48.86711766351632
				]
			},
			"properties": {
				"Nom": "ECOLE ELEMENTAIRE",
				"objectid": 33,
				"Adresse": "6 RUE VAUCANSON",
				"geo_point_2d": [
					48.86711766351632,
					2.356788112679094
				],
				"cp": "75003",
				"num_bv": "13",
				"id_bv": "3-13"
			}
		},
		{
			"type": "Feature",
			"geometry": {
				"type": "Point",
				"coordinates": [
					2.364033607980206,
					48.86135218784701
				]
			},
			"properties": {
				"Nom": "LYCEE SIMONE WEIL",
				"objectid": 26,
				"Adresse": "7 RUE DE POITOU",
				"geo_point_2d": [
					48.86135218784701,
					2.364033607980206
				],
				"cp": "75003",
				"num_bv": "6",
				"id_bv": "3-6"
			}
		},
		{
			"type": "Feature",
			"geometry": {
				"type": "Point",
				"coordinates": [
					2.355172112698722,
					48.863620134722936
				]
			},
			"properties": {
				"Nom": "ECOLE MATERNELLE",
				"objectid": 31,
				"Adresse": "25 RUE CHAPON",
				"geo_point_2d": [
					48.863620134722936,
					2.355172112698722
				],
				"cp": "75003",
				"num_bv": "11",
				"id_bv": "3-11"
			}
		},
		{
			"type": "Feature",
			"geometry": {
				"type": "Point",
				"coordinates": [
					2.323773107971395,
					48.84564321342216
				]
			},
			"properties": {
				"Nom": "ECOLE ELEMENTAIRE",
				"objectid": 90,
				"Adresse": "6 RUE LITTRE",
				"geo_point_2d": [
					48.84564321342216,
					2.323773107971395
				],
				"cp": "75006",
				"num_bv": "16",
				"id_bv": "6-16"
			}
		},
		{
			"type": "Feature",
			"geometry": {
				"type": "Point",
				"coordinates": [
					2.332845545464418,
					48.854733878225744
				]
			},
			"properties": {
				"Nom": "COLLEGE JACQUES PREVERT",
				"objectid": 83,
				"Adresse": "18 RUE SAINT BENOIT",
				"geo_point_2d": [
					48.854733878225744,
					2.332845545464418
				],
				"cp": "75006",
				"num_bv": "9",
				"id_bv": "6-9"
			}
		},
		{
			"type": "Feature",
			"geometry": {
				"type": "Point",
				"coordinates": [
					2.380494278429646,
					48.85608077990476
				]
			},
			"properties": {
				"Nom": "ECOLE ELEMENTAIRE",
				"objectid": 210,
				"Adresse": "35 RUE GODEFROY CAVAIGNAC",
				"geo_point_2d": [
					48.85608077990476,
					2.380494278429646
				],
				"cp": "75011",
				"num_bv": "5",
				"id_bv": "11-5"
			}
		},
		{
			"type": "Feature",
			"geometry": {
				"type": "Point",
				"coordinates": [
					2.372385964210152,
					48.86793495391689
				]
			},
			"properties": {
				"Nom": "ECOLE MATERNELLE",
				"objectid": 227,
				"Adresse": "111 AVENUE PARMENTIER",
				"geo_point_2d": [
					48.86793495391689,
					2.372385964210152
				],
				"cp": "75011",
				"num_bv": "22",
				"id_bv": "11-22"
			}
		},
		{
			"type": "Feature",
			"geometry": {
				"type": "Point",
				"coordinates": [
					2.36477403552505,
					48.87833745297161
				]
			},
			"properties": {
				"Nom": "ECOLE ELEMENTAIRE",
				"objectid": 186,
				"Adresse": "10 RUE EUGENE VARLIN",
				"geo_point_2d": [
					48.87833745297161,
					2.36477403552505
				],
				"cp": "75010",
				"num_bv": "20",
				"id_bv": "10-20"
			}
		},
		{
			"type": "Feature",
			"geometry": {
				"type": "Point",
				"coordinates": [
					2.36382465940898,
					48.87175161694108
				]
			},
			"properties": {
				"Nom": "ECOLE ELEMENTAIRE",
				"objectid": 170,
				"Adresse": "17 RUE DE MARSEILLE",
				"geo_point_2d": [
					48.87175161694108,
					2.36382465940898
				],
				"cp": "75010",
				"num_bv": "4",
				"id_bv": "10-4"
			}
		},
		{
			"type": "Feature",
			"geometry": {
				"type": "Point",
				"coordinates": [
					2.352506614308577,
					48.87913850844485
				]
			},
			"properties": {
				"Nom": "ECOLE ELEMENTAIRE",
				"objectid": 194,
				"Adresse": "14 RUE BOSSUET",
				"geo_point_2d": [
					48.87913850844485,
					2.352506614308577
				],
				"cp": "75010",
				"num_bv": "28",
				"id_bv": "10-28"
			}
		},
		{
			"type": "Feature",
			"geometry": {
				"type": "Point",
				"coordinates": [
					2.372494075471415,
					48.85741545794757
				]
			},
			"properties": {
				"Nom": "ECOLE ELEMENTAIRE",
				"objectid": 219,
				"Adresse": "13 RUE FROMENT",
				"geo_point_2d": [
					48.85741545794757,
					2.372494075471415
				],
				"cp": "75011",
				"num_bv": "14",
				"id_bv": "11-14"
			}
		},
		{
			"type": "Feature",
			"geometry": {
				"type": "Point",
				"coordinates": [
					2.368163055514795,
					48.88144351867598
				]
			},
			"properties": {
				"Nom": "COLLEGE VALMY",
				"objectid": 187,
				"Adresse": "195 QUAI DE VALMY",
				"geo_point_2d": [
					48.88144351867598,
					2.368163055514795
				],
				"cp": "75010",
				"num_bv": "21",
				"id_bv": "10-21"
			}
		},
		{
			"type": "Feature",
			"geometry": {
				"type": "Point",
				"coordinates": [
					2.338667949046521,
					48.87916167986249
				]
			},
			"properties": {
				"Nom": "ECOLE MATERNELLE",
				"objectid": 149,
				"Adresse": "12 RUE CLAUZEL",
				"geo_point_2d": [
					48.87916167986249,
					2.338667949046521
				],
				"cp": "75009",
				"num_bv": "10",
				"id_bv": "9-10"
			}
		},
		{
			"type": "Feature",
			"geometry": {
				"type": "Point",
				"coordinates": [
					2.338667949046521,
					48.87916167986249
				]
			},
			"properties": {
				"Nom": "ECOLE MATERNELLE",
				"objectid": 150,
				"Adresse": "12 RUE CLAUZEL",
				"geo_point_2d": [
					48.87916167986249,
					2.338667949046521
				],
				"cp": "75009",
				"num_bv": "11",
				"id_bv": "9-11"
			}
		},
		{
			"type": "Feature",
			"geometry": {
				"type": "Point",
				"coordinates": [
					2.291317478437662,
					48.837972588752436
				]
			},
			"properties": {
				"Nom": "GROUPE D'ENSEIGNEMENT TECHNIQUE DU BATIMENT",
				"objectid": 519,
				"Adresse": "15 RUE SAINT LAMBERT",
				"geo_point_2d": [
					48.837972588752436,
					2.291317478437662
				],
				"cp": "75015",
				"num_bv": "67",
				"id_bv": "15-67"
			}
		},
		{
			"type": "Feature",
			"geometry": {
				"type": "Point",
				"coordinates": [
					2.268341257335209,
					48.827963593955445
				]
			},
			"properties": {
				"Nom": "ECOLE POLYVALENTE",
				"objectid": 528,
				"Adresse": "3 BOULEVARD DES FRERES VOISIN",
				"geo_point_2d": [
					48.827963593955445,
					2.268341257335209
				],
				"cp": "75015",
				"num_bv": "76",
				"id_bv": "15-76"
			}
		},
		{
			"type": "Feature",
			"geometry": {
				"type": "Point",
				"coordinates": [
					2.287597767579657,
					48.83992700638746
				]
			},
			"properties": {
				"Nom": "ECOLE MATERNELLE",
				"objectid": 540,
				"Adresse": "10 RUE FRANCOIS COPPEE",
				"geo_point_2d": [
					48.83992700638746,
					2.287597767579657
				],
				"cp": "75015",
				"num_bv": "88",
				"id_bv": "15-88"
			}
		},
		{
			"type": "Feature",
			"geometry": {
				"type": "Point",
				"coordinates": [
					2.290723308270024,
					48.83766552887667
				]
			},
			"properties": {
				"Nom": "ECOLE MATERNELLE",
				"objectid": 520,
				"Adresse": "2 RUE THEODORE DECK",
				"geo_point_2d": [
					48.83766552887667,
					2.290723308270024
				],
				"cp": "75015",
				"num_bv": "68",
				"id_bv": "15-68"
			}
		},
		{
			"type": "Feature",
			"geometry": {
				"type": "Point",
				"coordinates": [
					2.301554988584833,
					48.83240264592155
				]
			},
			"properties": {
				"Nom": "ECOLE MATERNELLE",
				"objectid": 502,
				"Adresse": "40 RUE DES MORILLONS",
				"geo_point_2d": [
					48.83240264592155,
					2.301554988584833
				],
				"cp": "75015",
				"num_bv": "50",
				"id_bv": "15-50"
			}
		},
		{
			"type": "Feature",
			"geometry": {
				"type": "Point",
				"coordinates": [
					2.279837789134673,
					48.842730879675784
				]
			},
			"properties": {
				"Nom": "ECOLE ELEMENTAIRE",
				"objectid": 533,
				"Adresse": "50 RUE GUTENBERG",
				"geo_point_2d": [
					48.842730879675784,
					2.279837789134673
				],
				"cp": "75015",
				"num_bv": "81",
				"id_bv": "15-81"
			}
		},
		{
			"type": "Feature",
			"geometry": {
				"type": "Point",
				"coordinates": [
					2.284123606177976,
					48.8437108337535
				]
			},
			"properties": {
				"Nom": "ECOLE ELEMENTAIRE",
				"objectid": 536,
				"Adresse": "9 RUE LACORDAIRE",
				"geo_point_2d": [
					48.8437108337535,
					2.284123606177976
				],
				"cp": "75015",
				"num_bv": "84",
				"id_bv": "15-84"
			}
		},
		{
			"type": "Feature",
			"geometry": {
				"type": "Point",
				"coordinates": [
					2.369976587713752,
					48.824622423834654
				]
			},
			"properties": {
				"Nom": "ECOLE ELEMENTAIRE",
				"objectid": 347,
				"Adresse": "37 RUE DU CHATEAU DES RENTIERS",
				"geo_point_2d": [
					48.824622423834654,
					2.369976587713752
				],
				"cp": "75013",
				"num_bv": "23",
				"id_bv": "13-23"
			}
		},
		{
			"type": "Feature",
			"geometry": {
				"type": "Point",
				"coordinates": [
					2.32055918755773,
					48.830404583219156
				]
			},
			"properties": {
				"Nom": "ECOLE ELEMENTAIRE",
				"objectid": 419,
				"Adresse": "48 RUE HIPPOLYTE MAINDRON",
				"geo_point_2d": [
					48.830404583219156,
					2.32055918755773
				],
				"cp": "75014",
				"num_bv": "24",
				"id_bv": "14-24"
			}
		},
		{
			"type": "Feature",
			"geometry": {
				"type": "Point",
				"coordinates": [
					2.32055918755773,
					48.830404583219156
				]
			},
			"properties": {
				"Nom": "ECOLE ELEMENTAIRE",
				"objectid": 420,
				"Adresse": "48 RUE HIPPOLYTE MAINDRON",
				"geo_point_2d": [
					48.830404583219156,
					2.32055918755773
				],
				"cp": "75014",
				"num_bv": "25",
				"id_bv": "14-25"
			}
		},